[
  {
    "timestamp": "2025-10-06T22:25:31.330546",
    "ruas": [
      {
        "id": 1,
        "nome": "Rua Coronel Oliveira Lima",
        "bairro": "Centro",
        "lat": -23.656440642397023,
        "lng": -46.52713433312033,
        "status": {
          "vazamento": true,
          "obra": false,
          "qualidade": 87,
          "consumo_agua": 362
        }
      },
      {
        "id": 2,
        "nome": "Avenida Dom Pedro II",
        "bairro": "Vila Bastos",
        "lat": -23.641177693500946,
        "lng": -46.54059526195661,
        "status": {
          "vazamento": true,
          "obra": false,
          "qualidade": 99,
          "consumo_agua": 102
        }
      },
      {
        "id": 3,
        "nome": "Rua das Figueiras",
        "bairro": "Jardim",
        "lat": -23.645144053822314,
        "lng": -46.5421068042849,
        "status": {
          "vazamento": true,
          "obra": false,
          "qualidade": 95,
          "consumo_agua": 92
        }
      },
      {
        "id": 4,
        "nome": "Avenida Portugal",
        "bairro": "Vila Alzira",
        "lat": -23.66306824488266,
        "lng": -46.53321313312019,
        "status": {
          "vazamento": true,
          "obra": true,
          "qualidade": 6,
          "consumo_agua": 387
        }
      },
      {
        "id": 5,
        "nome": "Rua Carij\u00f3s",
        "bairro": "Vila Linda",
        "lat": -23.686756303704435,
        "lng": -46.52195377544774,
        "status": {
          "vazamento": false,
          "obra": false,
          "qualidade": 54,
          "consumo_agua": 96
        }
      },
      {
        "id": 6,
        "nome": "Avenida Firestone",
        "bairro": "Vila Am\u00e9rica",
        "lat": -23.673820822957676,
        "lng": -46.51771880428405,
        "status": {
          "vazamento": true,
          "obra": true,
          "qualidade": 3,
          "consumo_agua": 441
        }
      },
      {
        "id": 7,
        "nome": "Rua Orat\u00f3rio",
        "bairro": "Parque Orat\u00f3rio",
        "lat": -23.646185586712082,
        "lng": -46.52580015836169,
        "status": {
          "vazamento": true,
          "obra": false,
          "qualidade": 72,
          "consumo_agua": 117
        }
      },
      {
        "id": 8,
        "nome": "Rua Giovanni Battista Pirelli",
        "bairro": "Utinga",
        "lat": -23.66534763193009,
        "lng": -46.49779890428419,
        "status": {
          "vazamento": false,
          "obra": false,
          "qualidade": 66,
          "consumo_agua": 57
        }
      },
      {
        "id": 9,
        "nome": "Rua Catequese",
        "bairro": "Vila Assun\u00e7\u00e3o",
        "lat": -23.657100851514766,
        "lng": -46.53787033312041,
        "status": {
          "vazamento": true,
          "obra": true,
          "qualidade": 0,
          "consumo_agua": 241
        }
      },
      {
        "id": 10,
        "nome": "Rua Laura",
        "bairro": "Vila Palmares",
        "lat": -23.661725659351013,
        "lng": -46.534404319627804,
        "status": {
          "vazamento": false,
          "obra": false,
          "qualidade": 97,
          "consumo_agua": 421
        }
      },
      {
        "id": 11,
        "nome": "Rua Caminho do Pilar",
        "bairro": "Vila Camil\u00f3polis",
        "lat": -23.672958378723294,
        "lng": -46.54103709079151,
        "status": {
          "vazamento": true,
          "obra": false,
          "qualidade": 70,
          "consumo_agua": 417
        }
      },
      {
        "id": 12,
        "nome": "Rua das Hort\u00eancias",
        "bairro": "Parque das Na\u00e7\u00f5es",
        "lat": -23.683418730177046,
        "lng": -46.51671438894033,
        "status": {
          "vazamento": true,
          "obra": true,
          "qualidade": 89,
          "consumo_agua": 287
        }
      },
      {
        "id": 13,
        "nome": "Rua Alfredo Maluf",
        "bairro": "Vila Metal\u00fargica",
        "lat": -23.612510678764714,
        "lng": -46.574037775450144,
        "status": {
          "vazamento": false,
          "obra": true,
          "qualidade": 31,
          "consumo_agua": 103
        }
      },
      {
        "id": 14,
        "nome": "Rua Igarapava",
        "bairro": "Jardim Santo Andr\u00e9",
        "lat": -23.66696203168621,
        "lng": -46.55183836195601,
        "status": {
          "vazamento": true,
          "obra": true,
          "qualidade": 3,
          "consumo_agua": 194
        }
      },
      {
        "id": 15,
        "nome": "Rua das Mon\u00e7\u00f5es",
        "bairro": "Campestre",
        "lat": -23.65395317873637,
        "lng": -46.53731830428472,
        "status": {
          "vazamento": false,
          "obra": true,
          "qualidade": 60,
          "consumo_agua": 102
        }
      },
      {
        "id": 16,
        "nome": "Rua Ant\u00f4nio Cardoso",
        "bairro": "Vila Francisco Matarazzo",
        "lat": -23.661292931516286,
        "lng": -46.521383915261005,
        "status": {
          "vazamento": false,
          "obra": false,
          "qualidade": 63,
          "consumo_agua": 500
        }
      },
      {
        "id": 17,
        "nome": "Rua S\u00e3o Vicente",
        "bairro": "Vila Valpara\u00edso",
        "lat": -23.652706061390358,
        "lng": -46.53055757544888,
        "status": {
          "vazamento": true,
          "obra": false,
          "qualidade": 10,
          "consumo_agua": 55
        }
      },
      {
        "id": 18,
        "nome": "Rua Jos\u00e9 Bonif\u00e1cio",
        "bairro": "Vila Humait\u00e1",
        "lat": -23.6707556787248,
        "lng": -46.52849811962737,
        "status": {
          "vazamento": true,
          "obra": true,
          "qualidade": 13,
          "consumo_agua": 302
        }
      },
      {
        "id": 19,
        "nome": "Rua dos Vianas",
        "bairro": "S\u00edtio dos Vianas",
        "lat": -23.710710148329184,
        "lng": -46.514843023887686,
        "status": {
          "vazamento": false,
          "obra": true,
          "qualidade": 89,
          "consumo_agua": 490
        }
      },
      {
        "id": 20,
        "nome": "Rua dos Coqueiros",
        "bairro": "Jardim Las Vegas",
        "lat": -23.634991909814865,
        "lng": -46.54306661777767,
        "status": {
          "vazamento": false,
          "obra": false,
          "qualidade": 81,
          "consumo_agua": 123
        }
      }
    ]
  },
  {
    "timestamp": "2025-10-06T22:25:31.521593",
    "ruas": [
      {
        "id": 1,
        "nome": "Rua Coronel Oliveira Lima",
        "bairro": "Centro",
        "lat": -23.656440642397023,
        "lng": -46.52713433312033,
        "status": {
          "vazamento": true,
          "obra": true,
          "qualidade": 16,
          "consumo_agua": 382
        }
      },
      {
        "id": 2,
        "nome": "Avenida Dom Pedro II",
        "bairro": "Vila Bastos",
        "lat": -23.641177693500946,
        "lng": -46.54059526195661,
        "status": {
          "vazamento": false,
          "obra": true,
          "qualidade": 57,
          "consumo_agua": 107
        }
      },
      {
        "id": 3,
        "nome": "Rua das Figueiras",
        "bairro": "Jardim",
        "lat": -23.645144053822314,
        "lng": -46.5421068042849,
        "status": {
          "vazamento": true,
          "obra": false,
          "qualidade": 22,
          "consumo_agua": 81
        }
      },
      {
        "id": 4,
        "nome": "Avenida Portugal",
        "bairro": "Vila Alzira",
        "lat": -23.66306824488266,
        "lng": -46.53321313312019,
        "status": {
          "vazamento": true,
          "obra": true,
          "qualidade": 29,
          "consumo_agua": 378
        }
      },
      {
        "id": 5,
        "nome": "Rua Carij\u00f3s",
        "bairro": "Vila Linda",
        "lat": -23.686756303704435,
        "lng": -46.52195377544774,
        "status": {
          "vazamento": false,
          "obra": false,
          "qualidade": 63,
          "consumo_agua": 76
        }
      },
      {
        "id": 6,
        "nome": "Avenida Firestone",
        "bairro": "Vila Am\u00e9rica",
        "lat": -23.673820822957676,
        "lng": -46.51771880428405,
        "status": {
          "vazamento": false,
          "obra": false,
          "qualidade": 81,
          "consumo_agua": 443
        }
      },
      {
        "id": 7,
        "nome": "Rua Orat\u00f3rio",
        "bairro": "Parque Orat\u00f3rio",
        "lat": -23.646185586712082,
        "lng": -46.52580015836169,
        "status": {
          "vazamento": true,
          "obra": true,
          "qualidade": 31,
          "consumo_agua": 103
        }
      },
      {
        "id": 8,
        "nome": "Rua Giovanni Battista Pirelli",
        "bairro": "Utinga",
        "lat": -23.66534763193009,
        "lng": -46.49779890428419,
        "status": {
          "vazamento": false,
          "obra": false,
          "qualidade": 93,
          "consumo_agua": 75
        }
      },
      {
        "id": 9,
        "nome": "Rua Catequese",
        "bairro": "Vila Assun\u00e7\u00e3o",
        "lat": -23.657100851514766,
        "lng": -46.53787033312041,
        "status": {
          "vazamento": false,
          "obra": false,
          "qualidade": 3,
          "consumo_agua": 237
        }
      },
      {
        "id": 10,
        "nome": "Rua Laura",
        "bairro": "Vila Palmares",
        "lat": -23.661725659351013,
        "lng": -46.534404319627804,
        "status": {
          "vazamento": false,
          "obra": false,
          "qualidade": 30,
          "consumo_agua": 428
        }
      },
      {
        "id": 11,
        "nome": "Rua Caminho do Pilar",
        "bairro": "Vila Camil\u00f3polis",
        "lat": -23.672958378723294,
        "lng": -46.54103709079151,
        "status": {
          "vazamento": false,
          "obra": true,
          "qualidade": 10,
          "consumo_agua": 402
        }
      },
      {
        "id": 12,
        "nome": "Rua das Hort\u00eancias",
        "bairro": "Parque das Na\u00e7\u00f5es",
        "lat": -23.683418730177046,
        "lng": -46.51671438894033,
        "status": {
          "vazamento": true,
          "obra": true,
          "qualidade": 76,
          "consumo_agua": 298
        }
      },
      {
        "id": 13,
        "nome": "Rua Alfredo Maluf",
        "bairro": "Vila Metal\u00fargica",
        "lat": -23.612510678764714,
        "lng": -46.574037775450144,
        "status": {
          "vazamento": true,
          "obra": true,
          "qualidade": 75,
          "consumo_agua": 90
        }
      },
      {
        "id": 14,
        "nome": "Rua Igarapava",
        "bairro": "Jardim Santo Andr\u00e9",
        "lat": -23.66696203168621,
        "lng": -46.55183836195601,
        "status": {
          "vazamento": false,
          "obra": true,
          "qualidade": 11,
          "consumo_agua": 213
        }
      },
      {
        "id": 15,
        "nome": "Rua das Mon\u00e7\u00f5es",
        "bairro": "Campestre",
        "lat": -23.65395317873637,
        "lng": -46.53731830428472,
        "status": {
          "vazamento": true,
          "obra": true,
          "qualidade": 59,
          "consumo_agua": 120
        }
      },
      {
        "id": 16,
        "nome": "Rua Ant\u00f4nio Cardoso",
        "bairro": "Vila Francisco Matarazzo",
        "lat": -23.661292931516286,
        "lng": -46.521383915261005,
        "status": {
          "vazamento": false,
          "obra": true,
          "qualidade": 49,
          "consumo_agua": 487
        }
      },
      {
        "id": 17,
        "nome": "Rua S\u00e3o Vicente",
        "bairro": "Vila Valpara\u00edso",
        "lat": -23.652706061390358,
        "lng": -46.53055757544888,
        "status": {
          "vazamento": true,
          "obra": false,
          "qualidade": 95,
          "consumo_agua": 72
        }
      },
      {
        "id": 18,
        "nome": "Rua Jos\u00e9 Bonif\u00e1cio",
        "bairro": "Vila Humait\u00e1",
        "lat": -23.6707556787248,
        "lng": -46.52849811962737,
        "status": {
          "vazamento": true,
          "obra": true,
          "qualidade": 59,
          "consumo_agua": 310
        }
      },
      {
        "id": 19,
        "nome": "Rua dos Vianas",
        "bairro": "S\u00edtio dos Vianas",
        "lat": -23.710710148329184,
        "lng": -46.514843023887686,
        "status": {
          "vazamento": false,
          "obra": true,
          "qualidade": 62,
          "consumo_agua": 500
        }
      },
      {
        "id": 20,
        "nome": "Rua dos Coqueiros",
        "bairro": "Jardim Las Vegas",
        "lat": -23.634991909814865,
        "lng": -46.54306661777767,
        "status": {
          "vazamento": true,
          "obra": true,
          "qualidade": 87,
          "consumo_agua": 128
        }
      }
    ]
  },
  {
    "timestamp": "2025-10-06T22:26:31.355975",
    "ruas": [
      {
        "id": 1,
        "nome": "Rua Coronel Oliveira Lima",
        "bairro": "Centro",
        "lat": -23.656440642397023,
        "lng": -46.52713433312033,
        "status": {
          "vazamento": false,
          "obra": false,
          "qualidade": 100,
          "consumo_agua": 372
        }
      },
      {
        "id": 2,
        "nome": "Avenida Dom Pedro II",
        "bairro": "Vila Bastos",
        "lat": -23.641177693500946,
        "lng": -46.54059526195661,
        "status": {
          "vazamento": false,
          "obra": false,
          "qualidade": 86,
          "consumo_agua": 127
        }
      },
      {
        "id": 3,
        "nome": "Rua das Figueiras",
        "bairro": "Jardim",
        "lat": -23.645144053822314,
        "lng": -46.5421068042849,
        "status": {
          "vazamento": true,
          "obra": true,
          "qualidade": 4,
          "consumo_agua": 83
        }
      },
      {
        "id": 4,
        "nome": "Avenida Portugal",
        "bairro": "Vila Alzira",
        "lat": -23.66306824488266,
        "lng": -46.53321313312019,
        "status": {
          "vazamento": true,
          "obra": false,
          "qualidade": 67,
          "consumo_agua": 396
        }
      },
      {
        "id": 5,
        "nome": "Rua Carij\u00f3s",
        "bairro": "Vila Linda",
        "lat": -23.686756303704435,
        "lng": -46.52195377544774,
        "status": {
          "vazamento": false,
          "obra": true,
          "qualidade": 12,
          "consumo_agua": 88
        }
      },
      {
        "id": 6,
        "nome": "Avenida Firestone",
        "bairro": "Vila Am\u00e9rica",
        "lat": -23.673820822957676,
        "lng": -46.51771880428405,
        "status": {
          "vazamento": false,
          "obra": false,
          "qualidade": 40,
          "consumo_agua": 426
        }
      },
      {
        "id": 7,
        "nome": "Rua Orat\u00f3rio",
        "bairro": "Parque Orat\u00f3rio",
        "lat": -23.646185586712082,
        "lng": -46.52580015836169,
        "status": {
          "vazamento": false,
          "obra": false,
          "qualidade": 46,
          "consumo_agua": 96
        }
      },
      {
        "id": 8,
        "nome": "Rua Giovanni Battista Pirelli",
        "bairro": "Utinga",
        "lat": -23.66534763193009,
        "lng": -46.49779890428419,
        "status": {
          "vazamento": true,
          "obra": false,
          "qualidade": 21,
          "consumo_agua": 72
        }
      },
      {
        "id": 9,
        "nome": "Rua Catequese",
        "bairro": "Vila Assun\u00e7\u00e3o",
        "lat": -23.657100851514766,
        "lng": -46.53787033312041,
        "status": {
          "vazamento": false,
          "obra": true,
          "qualidade": 37,
          "consumo_agua": 228
        }
      },
      {
        "id": 10,
        "nome": "Rua Laura",
        "bairro": "Vila Palmares",
        "lat": -23.661725659351013,
        "lng": -46.534404319627804,
        "status": {
          "vazamento": false,
          "obra": true,
          "qualidade": 71,
          "consumo_agua": 422
        }
      },
      {
        "id": 11,
        "nome": "Rua Caminho do Pilar",
        "bairro": "Vila Camil\u00f3polis",
        "lat": -23.672958378723294,
        "lng": -46.54103709079151,
        "status": {
          "vazamento": false,
          "obra": false,
          "qualidade": 9,
          "consumo_agua": 393
        }
      },
      {
        "id": 12,
        "nome": "Rua das Hort\u00eancias",
        "bairro": "Parque das Na\u00e7\u00f5es",
        "lat": -23.683418730177046,
        "lng": -46.51671438894033,
        "status": {
          "vazamento": false,
          "obra": false,
          "qualidade": 63,
          "consumo_agua": 309
        }
      },
      {
        "id": 13,
        "nome": "Rua Alfredo Maluf",
        "bairro": "Vila Metal\u00fargica",
        "lat": -23.612510678764714,
        "lng": -46.574037775450144,
        "status": {
          "vazamento": true,
          "obra": false,
          "qualidade": 78,
          "consumo_agua": 88
        }
      },
      {
        "id": 14,
        "nome": "Rua Igarapava",
        "bairro": "Jardim Santo Andr\u00e9",
        "lat": -23.66696203168621,
        "lng": -46.55183836195601,
        "status": {
          "vazamento": false,
          "obra": true,
          "qualidade": 25,
          "consumo_agua": 225
        }
      },
      {
        "id": 15,
        "nome": "Rua das Mon\u00e7\u00f5es",
        "bairro": "Campestre",
        "lat": -23.65395317873637,
        "lng": -46.53731830428472,
        "status": {
          "vazamento": true,
          "obra": false,
          "qualidade": 76,
          "consumo_agua": 107
        }
      },
      {
        "id": 16,
        "nome": "Rua Ant\u00f4nio Cardoso",
        "bairro": "Vila Francisco Matarazzo",
        "lat": -23.661292931516286,
        "lng": -46.521383915261005,
        "status": {
          "vazamento": true,
          "obra": false,
          "qualidade": 76,
          "consumo_agua": 500
        }
      },
      {
        "id": 17,
        "nome": "Rua S\u00e3o Vicente",
        "bairro": "Vila Valpara\u00edso",
        "lat": -23.652706061390358,
        "lng": -46.53055757544888,
        "status": {
          "vazamento": false,
          "obra": true,
          "qualidade": 11,
          "consumo_agua": 80
        }
      },
      {
        "id": 18,
        "nome": "Rua Jos\u00e9 Bonif\u00e1cio",
        "bairro": "Vila Humait\u00e1",
        "lat": -23.6707556787248,
        "lng": -46.52849811962737,
        "status": {
          "vazamento": true,
          "obra": false,
          "qualidade": 46,
          "consumo_agua": 301
        }
      },
      {
        "id": 19,
        "nome": "Rua dos Vianas",
        "bairro": "S\u00edtio dos Vianas",
        "lat": -23.710710148329184,
        "lng": -46.514843023887686,
        "status": {
          "vazamento": true,
          "obra": false,
          "qualidade": 14,
          "consumo_agua": 487
        }
      },
      {
        "id": 20,
        "nome": "Rua dos Coqueiros",
        "bairro": "Jardim Las Vegas",
        "lat": -23.634991909814865,
        "lng": -46.54306661777767,
        "status": {
          "vazamento": true,
          "obra": false,
          "qualidade": 8,
          "consumo_agua": 145
        }
      }
    ]
  },
  {
    "timestamp": "2025-10-06T22:26:31.543059",
    "ruas": [
      {
        "id": 1,
        "nome": "Rua Coronel Oliveira Lima",
        "bairro": "Centro",
        "lat": -23.656440642397023,
        "lng": -46.52713433312033,
        "status": {
          "vazamento": true,
          "obra": false,
          "qualidade": 37,
          "consumo_agua": 364
        }
      },
      {
        "id": 2,
        "nome": "Avenida Dom Pedro II",
        "bairro": "Vila Bastos",
        "lat": -23.641177693500946,
        "lng": -46.54059526195661,
        "status": {
          "vazamento": true,
          "obra": true,
          "qualidade": 25,
          "consumo_agua": 122
        }
      },
      {
        "id": 3,
        "nome": "Rua das Figueiras",
        "bairro": "Jardim",
        "lat": -23.645144053822314,
        "lng": -46.5421068042849,
        "status": {
          "vazamento": false,
          "obra": false,
          "qualidade": 86,
          "consumo_agua": 67
        }
      },
      {
        "id": 4,
        "nome": "Avenida Portugal",
        "bairro": "Vila Alzira",
        "lat": -23.66306824488266,
        "lng": -46.53321313312019,
        "status": {
          "vazamento": true,
          "obra": false,
          "qualidade": 64,
          "consumo_agua": 397
        }
      },
      {
        "id": 5,
        "nome": "Rua Carij\u00f3s",
        "bairro": "Vila Linda",
        "lat": -23.686756303704435,
        "lng": -46.52195377544774,
        "status": {
          "vazamento": false,
          "obra": false,
          "qualidade": 100,
          "consumo_agua": 100
        }
      },
      {
        "id": 6,
        "nome": "Avenida Firestone",
        "bairro": "Vila Am\u00e9rica",
        "lat": -23.673820822957676,
        "lng": -46.51771880428405,
        "status": {
          "vazamento": false,
          "obra": true,
          "qualidade": 82,
          "consumo_agua": 434
        }
      },
      {
        "id": 7,
        "nome": "Rua Orat\u00f3rio",
        "bairro": "Parque Orat\u00f3rio",
        "lat": -23.646185586712082,
        "lng": -46.52580015836169,
        "status": {
          "vazamento": true,
          "obra": false,
          "qualidade": 95,
          "consumo_agua": 77
        }
      },
      {
        "id": 8,
        "nome": "Rua Giovanni Battista Pirelli",
        "bairro": "Utinga",
        "lat": -23.66534763193009,
        "lng": -46.49779890428419,
        "status": {
          "vazamento": true,
          "obra": true,
          "qualidade": 80,
          "consumo_agua": 67
        }
      },
      {
        "id": 9,
        "nome": "Rua Catequese",
        "bairro": "Vila Assun\u00e7\u00e3o",
        "lat": -23.657100851514766,
        "lng": -46.53787033312041,
        "status": {
          "vazamento": false,
          "obra": true,
          "qualidade": 42,
          "consumo_agua": 217
        }
      },
      {
        "id": 10,
        "nome": "Rua Laura",
        "bairro": "Vila Palmares",
        "lat": -23.661725659351013,
        "lng": -46.534404319627804,
        "status": {
          "vazamento": false,
          "obra": true,
          "qualidade": 25,
          "consumo_agua": 428
        }
      },
      {
        "id": 11,
        "nome": "Rua Caminho do Pilar",
        "bairro": "Vila Camil\u00f3polis",
        "lat": -23.672958378723294,
        "lng": -46.54103709079151,
        "status": {
          "vazamento": true,
          "obra": false,
          "qualidade": 87,
          "consumo_agua": 378
        }
      },
      {
        "id": 12,
        "nome": "Rua das Hort\u00eancias",
        "bairro": "Parque das Na\u00e7\u00f5es",
        "lat": -23.683418730177046,
        "lng": -46.51671438894033,
        "status": {
          "vazamento": false,
          "obra": false,
          "qualidade": 48,
          "consumo_agua": 318
        }
      },
      {
        "id": 13,
        "nome": "Rua Alfredo Maluf",
        "bairro": "Vila Metal\u00fargica",
        "lat": -23.612510678764714,
        "lng": -46.574037775450144,
        "status": {
          "vazamento": false,
          "obra": false,
          "qualidade": 0,
          "consumo_agua": 82
        }
      },
      {
        "id": 14,
        "nome": "Rua Igarapava",
        "bairro": "Jardim Santo Andr\u00e9",
        "lat": -23.66696203168621,
        "lng": -46.55183836195601,
        "status": {
          "vazamento": true,
          "obra": false,
          "qualidade": 60,
          "consumo_agua": 231
        }
      },
      {
        "id": 15,
        "nome": "Rua das Mon\u00e7\u00f5es",
        "bairro": "Campestre",
        "lat": -23.65395317873637,
        "lng": -46.53731830428472,
        "status": {
          "vazamento": false,
          "obra": true,
          "qualidade": 18,
          "consumo_agua": 89
        }
      },
      {
        "id": 16,
        "nome": "Rua Ant\u00f4nio Cardoso",
        "bairro": "Vila Francisco Matarazzo",
        "lat": -23.661292931516286,
        "lng": -46.521383915261005,
        "status": {
          "vazamento": true,
          "obra": false,
          "qualidade": 75,
          "consumo_agua": 488
        }
      },
      {
        "id": 17,
        "nome": "Rua S\u00e3o Vicente",
        "bairro": "Vila Valpara\u00edso",
        "lat": -23.652706061390358,
        "lng": -46.53055757544888,
        "status": {
          "vazamento": true,
          "obra": true,
          "qualidade": 84,
          "consumo_agua": 73
        }
      },
      {
        "id": 18,
        "nome": "Rua Jos\u00e9 Bonif\u00e1cio",
        "bairro": "Vila Humait\u00e1",
        "lat": -23.6707556787248,
        "lng": -46.52849811962737,
        "status": {
          "vazamento": true,
          "obra": false,
          "qualidade": 54,
          "consumo_agua": 299
        }
      },
      {
        "id": 19,
        "nome": "Rua dos Vianas",
        "bairro": "S\u00edtio dos Vianas",
        "lat": -23.710710148329184,
        "lng": -46.514843023887686,
        "status": {
          "vazamento": true,
          "obra": false,
          "qualidade": 98,
          "consumo_agua": 486
        }
      },
      {
        "id": 20,
        "nome": "Rua dos Coqueiros",
        "bairro": "Jardim Las Vegas",
        "lat": -23.634991909814865,
        "lng": -46.54306661777767,
        "status": {
          "vazamento": false,
          "obra": false,
          "qualidade": 62,
          "consumo_agua": 133
        }
      }
    ]
  },
  {
    "timestamp": "2025-10-06T22:27:31.369221",
    "ruas": [
      {
        "id": 1,
        "nome": "Rua Coronel Oliveira Lima",
        "bairro": "Centro",
        "lat": -23.656440642397023,
        "lng": -46.52713433312033,
        "status": {
          "vazamento": false,
          "obra": true,
          "qualidade": 71,
          "consumo_agua": 349
        }
      },
      {
        "id": 2,
        "nome": "Avenida Dom Pedro II",
        "bairro": "Vila Bastos",
        "lat": -23.641177693500946,
        "lng": -46.54059526195661,
        "status": {
          "vazamento": false,
          "obra": false,
          "qualidade": 81,
          "consumo_agua": 118
        }
      },
      {
        "id": 3,
        "nome": "Rua das Figueiras",
        "bairro": "Jardim",
        "lat": -23.645144053822314,
        "lng": -46.5421068042849,
        "status": {
          "vazamento": false,
          "obra": true,
          "qualidade": 11,
          "consumo_agua": 82
        }
      },
      {
        "id": 4,
        "nome": "Avenida Portugal",
        "bairro": "Vila Alzira",
        "lat": -23.66306824488266,
        "lng": -46.53321313312019,
        "status": {
          "vazamento": false,
          "obra": true,
          "qualidade": 32,
          "consumo_agua": 405
        }
      },
      {
        "id": 5,
        "nome": "Rua Carij\u00f3s",
        "bairro": "Vila Linda",
        "lat": -23.686756303704435,
        "lng": -46.52195377544774,
        "status": {
          "vazamento": true,
          "obra": true,
          "qualidade": 96,
          "consumo_agua": 108
        }
      },
      {
        "id": 6,
        "nome": "Avenida Firestone",
        "bairro": "Vila Am\u00e9rica",
        "lat": -23.673820822957676,
        "lng": -46.51771880428405,
        "status": {
          "vazamento": true,
          "obra": false,
          "qualidade": 95,
          "consumo_agua": 442
        }
      },
      {
        "id": 7,
        "nome": "Rua Orat\u00f3rio",
        "bairro": "Parque Orat\u00f3rio",
        "lat": -23.646185586712082,
        "lng": -46.52580015836169,
        "status": {
          "vazamento": true,
          "obra": false,
          "qualidade": 19,
          "consumo_agua": 76
        }
      },
      {
        "id": 8,
        "nome": "Rua Giovanni Battista Pirelli",
        "bairro": "Utinga",
        "lat": -23.66534763193009,
        "lng": -46.49779890428419,
        "status": {
          "vazamento": true,
          "obra": false,
          "qualidade": 91,
          "consumo_agua": 50
        }
      },
      {
        "id": 9,
        "nome": "Rua Catequese",
        "bairro": "Vila Assun\u00e7\u00e3o",
        "lat": -23.657100851514766,
        "lng": -46.53787033312041,
        "status": {
          "vazamento": false,
          "obra": true,
          "qualidade": 0,
          "consumo_agua": 237
        }
      },
      {
        "id": 10,
        "nome": "Rua Laura",
        "bairro": "Vila Palmares",
        "lat": -23.661725659351013,
        "lng": -46.534404319627804,
        "status": {
          "vazamento": false,
          "obra": true,
          "qualidade": 9,
          "consumo_agua": 410
        }
      },
      {
        "id": 11,
        "nome": "Rua Caminho do Pilar",
        "bairro": "Vila Camil\u00f3polis",
        "lat": -23.672958378723294,
        "lng": -46.54103709079151,
        "status": {
          "vazamento": false,
          "obra": false,
          "qualidade": 75,
          "consumo_agua": 368
        }
      },
      {
        "id": 12,
        "nome": "Rua das Hort\u00eancias",
        "bairro": "Parque das Na\u00e7\u00f5es",
        "lat": -23.683418730177046,
        "lng": -46.51671438894033,
        "status": {
          "vazamento": true,
          "obra": false,
          "qualidade": 71,
          "consumo_agua": 338
        }
      },
      {
        "id": 13,
        "nome": "Rua Alfredo Maluf",
        "bairro": "Vila Metal\u00fargica",
        "lat": -23.612510678764714,
        "lng": -46.574037775450144,
        "status": {
          "vazamento": false,
          "obra": false,
          "qualidade": 52,
          "consumo_agua": 96
        }
      },
      {
        "id": 14,
        "nome": "Rua Igarapava",
        "bairro": "Jardim Santo Andr\u00e9",
        "lat": -23.66696203168621,
        "lng": -46.55183836195601,
        "status": {
          "vazamento": false,
          "obra": true,
          "qualidade": 96,
          "consumo_agua": 229
        }
      },
      {
        "id": 15,
        "nome": "Rua das Mon\u00e7\u00f5es",
        "bairro": "Campestre",
        "lat": -23.65395317873637,
        "lng": -46.53731830428472,
        "status": {
          "vazamento": true,
          "obra": false,
          "qualidade": 66,
          "consumo_agua": 69
        }
      },
      {
        "id": 16,
        "nome": "Rua Ant\u00f4nio Cardoso",
        "bairro": "Vila Francisco Matarazzo",
        "lat": -23.661292931516286,
        "lng": -46.521383915261005,
        "status": {
          "vazamento": false,
          "obra": false,
          "qualidade": 80,
          "consumo_agua": 490
        }
      },
      {
        "id": 17,
        "nome": "Rua S\u00e3o Vicente",
        "bairro": "Vila Valpara\u00edso",
        "lat": -23.652706061390358,
        "lng": -46.53055757544888,
        "status": {
          "vazamento": true,
          "obra": true,
          "qualidade": 48,
          "consumo_agua": 91
        }
      },
      {
        "id": 18,
        "nome": "Rua Jos\u00e9 Bonif\u00e1cio",
        "bairro": "Vila Humait\u00e1",
        "lat": -23.6707556787248,
        "lng": -46.52849811962737,
        "status": {
          "vazamento": true,
          "obra": true,
          "qualidade": 97,
          "consumo_agua": 282
        }
      },
      {
        "id": 19,
        "nome": "Rua dos Vianas",
        "bairro": "S\u00edtio dos Vianas",
        "lat": -23.710710148329184,
        "lng": -46.514843023887686,
        "status": {
          "vazamento": true,
          "obra": true,
          "qualidade": 83,
          "consumo_agua": 489
        }
      },
      {
        "id": 20,
        "nome": "Rua dos Coqueiros",
        "bairro": "Jardim Las Vegas",
        "lat": -23.634991909814865,
        "lng": -46.54306661777767,
        "status": {
          "vazamento": true,
          "obra": false,
          "qualidade": 53,
          "consumo_agua": 135
        }
      }
    ]
  },
  {
    "timestamp": "2025-10-06T22:27:31.634464",
    "ruas": [
      {
        "id": 1,
        "nome": "Rua Coronel Oliveira Lima",
        "bairro": "Centro",
        "lat": -23.656440642397023,
        "lng": -46.52713433312033,
        "status": {
          "vazamento": false,
          "obra": true,
          "qualidade": 82,
          "consumo_agua": 359
        }
      },
      {
        "id": 2,
        "nome": "Avenida Dom Pedro II",
        "bairro": "Vila Bastos",
        "lat": -23.641177693500946,
        "lng": -46.54059526195661,
        "status": {
          "vazamento": false,
          "obra": false,
          "qualidade": 37,
          "consumo_agua": 126
        }
      },
      {
        "id": 3,
        "nome": "Rua das Figueiras",
        "bairro": "Jardim",
        "lat": -23.645144053822314,
        "lng": -46.5421068042849,
        "status": {
          "vazamento": false,
          "obra": false,
          "qualidade": 77,
          "consumo_agua": 100
        }
      },
      {
        "id": 4,
        "nome": "Avenida Portugal",
        "bairro": "Vila Alzira",
        "lat": -23.66306824488266,
        "lng": -46.53321313312019,
        "status": {
          "vazamento": false,
          "obra": true,
          "qualidade": 72,
          "consumo_agua": 425
        }
      },
      {
        "id": 5,
        "nome": "Rua Carij\u00f3s",
        "bairro": "Vila Linda",
        "lat": -23.686756303704435,
        "lng": -46.52195377544774,
        "status": {
          "vazamento": false,
          "obra": true,
          "qualidade": 74,
          "consumo_agua": 91
        }
      },
      {
        "id": 6,
        "nome": "Avenida Firestone",
        "bairro": "Vila Am\u00e9rica",
        "lat": -23.673820822957676,
        "lng": -46.51771880428405,
        "status": {
          "vazamento": false,
          "obra": true,
          "qualidade": 22,
          "consumo_agua": 442
        }
      },
      {
        "id": 7,
        "nome": "Rua Orat\u00f3rio",
        "bairro": "Parque Orat\u00f3rio",
        "lat": -23.646185586712082,
        "lng": -46.52580015836169,
        "status": {
          "vazamento": true,
          "obra": false,
          "qualidade": 96,
          "consumo_agua": 80
        }
      },
      {
        "id": 8,
        "nome": "Rua Giovanni Battista Pirelli",
        "bairro": "Utinga",
        "lat": -23.66534763193009,
        "lng": -46.49779890428419,
        "status": {
          "vazamento": false,
          "obra": false,
          "qualidade": 85,
          "consumo_agua": 52
        }
      },
      {
        "id": 9,
        "nome": "Rua Catequese",
        "bairro": "Vila Assun\u00e7\u00e3o",
        "lat": -23.657100851514766,
        "lng": -46.53787033312041,
        "status": {
          "vazamento": false,
          "obra": true,
          "qualidade": 12,
          "consumo_agua": 229
        }
      },
      {
        "id": 10,
        "nome": "Rua Laura",
        "bairro": "Vila Palmares",
        "lat": -23.661725659351013,
        "lng": -46.534404319627804,
        "status": {
          "vazamento": true,
          "obra": true,
          "qualidade": 86,
          "consumo_agua": 428
        }
      },
      {
        "id": 11,
        "nome": "Rua Caminho do Pilar",
        "bairro": "Vila Camil\u00f3polis",
        "lat": -23.672958378723294,
        "lng": -46.54103709079151,
        "status": {
          "vazamento": false,
          "obra": false,
          "qualidade": 36,
          "consumo_agua": 384
        }
      },
      {
        "id": 12,
        "nome": "Rua das Hort\u00eancias",
        "bairro": "Parque das Na\u00e7\u00f5es",
        "lat": -23.683418730177046,
        "lng": -46.51671438894033,
        "status": {
          "vazamento": false,
          "obra": true,
          "qualidade": 60,
          "consumo_agua": 348
        }
      },
      {
        "id": 13,
        "nome": "Rua Alfredo Maluf",
        "bairro": "Vila Metal\u00fargica",
        "lat": -23.612510678764714,
        "lng": -46.574037775450144,
        "status": {
          "vazamento": true,
          "obra": true,
          "qualidade": 28,
          "consumo_agua": 101
        }
      },
      {
        "id": 14,
        "nome": "Rua Igarapava",
        "bairro": "Jardim Santo Andr\u00e9",
        "lat": -23.66696203168621,
        "lng": -46.55183836195601,
        "status": {
          "vazamento": true,
          "obra": true,
          "qualidade": 90,
          "consumo_agua": 224
        }
      },
      {
        "id": 15,
        "nome": "Rua das Mon\u00e7\u00f5es",
        "bairro": "Campestre",
        "lat": -23.65395317873637,
        "lng": -46.53731830428472,
        "status": {
          "vazamento": false,
          "obra": false,
          "qualidade": 81,
          "consumo_agua": 57
        }
      },
      {
        "id": 16,
        "nome": "Rua Ant\u00f4nio Cardoso",
        "bairro": "Vila Francisco Matarazzo",
        "lat": -23.661292931516286,
        "lng": -46.521383915261005,
        "status": {
          "vazamento": false,
          "obra": false,
          "qualidade": 59,
          "consumo_agua": 470
        }
      },
      {
        "id": 17,
        "nome": "Rua S\u00e3o Vicente",
        "bairro": "Vila Valpara\u00edso",
        "lat": -23.652706061390358,
        "lng": -46.53055757544888,
        "status": {
          "vazamento": true,
          "obra": true,
          "qualidade": 81,
          "consumo_agua": 81
        }
      },
      {
        "id": 18,
        "nome": "Rua Jos\u00e9 Bonif\u00e1cio",
        "bairro": "Vila Humait\u00e1",
        "lat": -23.6707556787248,
        "lng": -46.52849811962737,
        "status": {
          "vazamento": false,
          "obra": false,
          "qualidade": 32,
          "consumo_agua": 298
        }
      },
      {
        "id": 19,
        "nome": "Rua dos Vianas",
        "bairro": "S\u00edtio dos Vianas",
        "lat": -23.710710148329184,
        "lng": -46.514843023887686,
        "status": {
          "vazamento": false,
          "obra": false,
          "qualidade": 86,
          "consumo_agua": 487
        }
      },
      {
        "id": 20,
        "nome": "Rua dos Coqueiros",
        "bairro": "Jardim Las Vegas",
        "lat": -23.634991909814865,
        "lng": -46.54306661777767,
        "status": {
          "vazamento": true,
          "obra": false,
          "qualidade": 96,
          "consumo_agua": 147
        }
      }
    ]
  },
  {
    "timestamp": "2025-10-06T22:28:31.389505",
    "ruas": [
      {
        "id": 1,
        "nome": "Rua Coronel Oliveira Lima",
        "bairro": "Centro",
        "lat": -23.656440642397023,
        "lng": -46.52713433312033,
        "status": {
          "vazamento": true,
          "obra": true,
          "qualidade": 35,
          "consumo_agua": 369
        }
      },
      {
        "id": 2,
        "nome": "Avenida Dom Pedro II",
        "bairro": "Vila Bastos",
        "lat": -23.641177693500946,
        "lng": -46.54059526195661,
        "status": {
          "vazamento": true,
          "obra": true,
          "qualidade": 17,
          "consumo_agua": 140
        }
      },
      {
        "id": 3,
        "nome": "Rua das Figueiras",
        "bairro": "Jardim",
        "lat": -23.645144053822314,
        "lng": -46.5421068042849,
        "status": {
          "vazamento": true,
          "obra": false,
          "qualidade": 30,
          "consumo_agua": 120
        }
      },
      {
        "id": 4,
        "nome": "Avenida Portugal",
        "bairro": "Vila Alzira",
        "lat": -23.66306824488266,
        "lng": -46.53321313312019,
        "status": {
          "vazamento": false,
          "obra": false,
          "qualidade": 90,
          "consumo_agua": 443
        }
      },
      {
        "id": 5,
        "nome": "Rua Carij\u00f3s",
        "bairro": "Vila Linda",
        "lat": -23.686756303704435,
        "lng": -46.52195377544774,
        "status": {
          "vazamento": true,
          "obra": true,
          "qualidade": 43,
          "consumo_agua": 77
        }
      },
      {
        "id": 6,
        "nome": "Avenida Firestone",
        "bairro": "Vila Am\u00e9rica",
        "lat": -23.673820822957676,
        "lng": -46.51771880428405,
        "status": {
          "vazamento": false,
          "obra": false,
          "qualidade": 79,
          "consumo_agua": 446
        }
      },
      {
        "id": 7,
        "nome": "Rua Orat\u00f3rio",
        "bairro": "Parque Orat\u00f3rio",
        "lat": -23.646185586712082,
        "lng": -46.52580015836169,
        "status": {
          "vazamento": false,
          "obra": false,
          "qualidade": 23,
          "consumo_agua": 88
        }
      },
      {
        "id": 8,
        "nome": "Rua Giovanni Battista Pirelli",
        "bairro": "Utinga",
        "lat": -23.66534763193009,
        "lng": -46.49779890428419,
        "status": {
          "vazamento": true,
          "obra": true,
          "qualidade": 86,
          "consumo_agua": 50
        }
      },
      {
        "id": 9,
        "nome": "Rua Catequese",
        "bairro": "Vila Assun\u00e7\u00e3o",
        "lat": -23.657100851514766,
        "lng": -46.53787033312041,
        "status": {
          "vazamento": false,
          "obra": false,
          "qualidade": 86,
          "consumo_agua": 244
        }
      },
      {
        "id": 10,
        "nome": "Rua Laura",
        "bairro": "Vila Palmares",
        "lat": -23.661725659351013,
        "lng": -46.534404319627804,
        "status": {
          "vazamento": true,
          "obra": false,
          "qualidade": 100,
          "consumo_agua": 409
        }
      },
      {
        "id": 11,
        "nome": "Rua Caminho do Pilar",
        "bairro": "Vila Camil\u00f3polis",
        "lat": -23.672958378723294,
        "lng": -46.54103709079151,
        "status": {
          "vazamento": false,
          "obra": true,
          "qualidade": 47,
          "consumo_agua": 404
        }
      },
      {
        "id": 12,
        "nome": "Rua das Hort\u00eancias",
        "bairro": "Parque das Na\u00e7\u00f5es",
        "lat": -23.683418730177046,
        "lng": -46.51671438894033,
        "status": {
          "vazamento": false,
          "obra": false,
          "qualidade": 48,
          "consumo_agua": 364
        }
      },
      {
        "id": 13,
        "nome": "Rua Alfredo Maluf",
        "bairro": "Vila Metal\u00fargica",
        "lat": -23.612510678764714,
        "lng": -46.574037775450144,
        "status": {
          "vazamento": true,
          "obra": false,
          "qualidade": 83,
          "consumo_agua": 101
        }
      },
      {
        "id": 14,
        "nome": "Rua Igarapava",
        "bairro": "Jardim Santo Andr\u00e9",
        "lat": -23.66696203168621,
        "lng": -46.55183836195601,
        "status": {
          "vazamento": true,
          "obra": false,
          "qualidade": 99,
          "consumo_agua": 219
        }
      },
      {
        "id": 15,
        "nome": "Rua das Mon\u00e7\u00f5es",
        "bairro": "Campestre",
        "lat": -23.65395317873637,
        "lng": -46.53731830428472,
        "status": {
          "vazamento": false,
          "obra": true,
          "qualidade": 81,
          "consumo_agua": 62
        }
      },
      {
        "id": 16,
        "nome": "Rua Ant\u00f4nio Cardoso",
        "bairro": "Vila Francisco Matarazzo",
        "lat": -23.661292931516286,
        "lng": -46.521383915261005,
        "status": {
          "vazamento": true,
          "obra": false,
          "qualidade": 67,
          "consumo_agua": 478
        }
      },
      {
        "id": 17,
        "nome": "Rua S\u00e3o Vicente",
        "bairro": "Vila Valpara\u00edso",
        "lat": -23.652706061390358,
        "lng": -46.53055757544888,
        "status": {
          "vazamento": false,
          "obra": true,
          "qualidade": 75,
          "consumo_agua": 73
        }
      },
      {
        "id": 18,
        "nome": "Rua Jos\u00e9 Bonif\u00e1cio",
        "bairro": "Vila Humait\u00e1",
        "lat": -23.6707556787248,
        "lng": -46.52849811962737,
        "status": {
          "vazamento": true,
          "obra": false,
          "qualidade": 1,
          "consumo_agua": 314
        }
      },
      {
        "id": 19,
        "nome": "Rua dos Vianas",
        "bairro": "S\u00edtio dos Vianas",
        "lat": -23.710710148329184,
        "lng": -46.514843023887686,
        "status": {
          "vazamento": false,
          "obra": false,
          "qualidade": 56,
          "consumo_agua": 481
        }
      },
      {
        "id": 20,
        "nome": "Rua dos Coqueiros",
        "bairro": "Jardim Las Vegas",
        "lat": -23.634991909814865,
        "lng": -46.54306661777767,
        "status": {
          "vazamento": false,
          "obra": true,
          "qualidade": 61,
          "consumo_agua": 160
        }
      }
    ]
  },
  {
    "timestamp": "2025-10-06T22:28:31.678419",
    "ruas": [
      {
        "id": 1,
        "nome": "Rua Coronel Oliveira Lima",
        "bairro": "Centro",
        "lat": -23.656440642397023,
        "lng": -46.52713433312033,
        "status": {
          "vazamento": false,
          "obra": false,
          "qualidade": 31,
          "consumo_agua": 358
        }
      },
      {
        "id": 2,
        "nome": "Avenida Dom Pedro II",
        "bairro": "Vila Bastos",
        "lat": -23.641177693500946,
        "lng": -46.54059526195661,
        "status": {
          "vazamento": false,
          "obra": true,
          "qualidade": 74,
          "consumo_agua": 156
        }
      },
      {
        "id": 3,
        "nome": "Rua das Figueiras",
        "bairro": "Jardim",
        "lat": -23.645144053822314,
        "lng": -46.5421068042849,
        "status": {
          "vazamento": true,
          "obra": true,
          "qualidade": 42,
          "consumo_agua": 101
        }
      },
      {
        "id": 4,
        "nome": "Avenida Portugal",
        "bairro": "Vila Alzira",
        "lat": -23.66306824488266,
        "lng": -46.53321313312019,
        "status": {
          "vazamento": true,
          "obra": false,
          "qualidade": 82,
          "consumo_agua": 424
        }
      },
      {
        "id": 5,
        "nome": "Rua Carij\u00f3s",
        "bairro": "Vila Linda",
        "lat": -23.686756303704435,
        "lng": -46.52195377544774,
        "status": {
          "vazamento": true,
          "obra": true,
          "qualidade": 89,
          "consumo_agua": 69
        }
      },
      {
        "id": 6,
        "nome": "Avenida Firestone",
        "bairro": "Vila Am\u00e9rica",
        "lat": -23.673820822957676,
        "lng": -46.51771880428405,
        "status": {
          "vazamento": false,
          "obra": true,
          "qualidade": 37,
          "consumo_agua": 441
        }
      },
      {
        "id": 7,
        "nome": "Rua Orat\u00f3rio",
        "bairro": "Parque Orat\u00f3rio",
        "lat": -23.646185586712082,
        "lng": -46.52580015836169,
        "status": {
          "vazamento": true,
          "obra": true,
          "qualidade": 38,
          "consumo_agua": 91
        }
      },
      {
        "id": 8,
        "nome": "Rua Giovanni Battista Pirelli",
        "bairro": "Utinga",
        "lat": -23.66534763193009,
        "lng": -46.49779890428419,
        "status": {
          "vazamento": false,
          "obra": false,
          "qualidade": 72,
          "consumo_agua": 61
        }
      },
      {
        "id": 9,
        "nome": "Rua Catequese",
        "bairro": "Vila Assun\u00e7\u00e3o",
        "lat": -23.657100851514766,
        "lng": -46.53787033312041,
        "status": {
          "vazamento": true,
          "obra": true,
          "qualidade": 78,
          "consumo_agua": 254
        }
      },
      {
        "id": 10,
        "nome": "Rua Laura",
        "bairro": "Vila Palmares",
        "lat": -23.661725659351013,
        "lng": -46.534404319627804,
        "status": {
          "vazamento": false,
          "obra": true,
          "qualidade": 94,
          "consumo_agua": 423
        }
      },
      {
        "id": 11,
        "nome": "Rua Caminho do Pilar",
        "bairro": "Vila Camil\u00f3polis",
        "lat": -23.672958378723294,
        "lng": -46.54103709079151,
        "status": {
          "vazamento": false,
          "obra": true,
          "qualidade": 6,
          "consumo_agua": 384
        }
      },
      {
        "id": 12,
        "nome": "Rua das Hort\u00eancias",
        "bairro": "Parque das Na\u00e7\u00f5es",
        "lat": -23.683418730177046,
        "lng": -46.51671438894033,
        "status": {
          "vazamento": true,
          "obra": false,
          "qualidade": 49,
          "consumo_agua": 361
        }
      },
      {
        "id": 13,
        "nome": "Rua Alfredo Maluf",
        "bairro": "Vila Metal\u00fargica",
        "lat": -23.612510678764714,
        "lng": -46.574037775450144,
        "status": {
          "vazamento": true,
          "obra": true,
          "qualidade": 36,
          "consumo_agua": 93
        }
      },
      {
        "id": 14,
        "nome": "Rua Igarapava",
        "bairro": "Jardim Santo Andr\u00e9",
        "lat": -23.66696203168621,
        "lng": -46.55183836195601,
        "status": {
          "vazamento": true,
          "obra": true,
          "qualidade": 43,
          "consumo_agua": 204
        }
      },
      {
        "id": 15,
        "nome": "Rua das Mon\u00e7\u00f5es",
        "bairro": "Campestre",
        "lat": -23.65395317873637,
        "lng": -46.53731830428472,
        "status": {
          "vazamento": false,
          "obra": false,
          "qualidade": 70,
          "consumo_agua": 75
        }
      },
      {
        "id": 16,
        "nome": "Rua Ant\u00f4nio Cardoso",
        "bairro": "Vila Francisco Matarazzo",
        "lat": -23.661292931516286,
        "lng": -46.521383915261005,
        "status": {
          "vazamento": true,
          "obra": false,
          "qualidade": 39,
          "consumo_agua": 460
        }
      },
      {
        "id": 17,
        "nome": "Rua S\u00e3o Vicente",
        "bairro": "Vila Valpara\u00edso",
        "lat": -23.652706061390358,
        "lng": -46.53055757544888,
        "status": {
          "vazamento": true,
          "obra": true,
          "qualidade": 89,
          "consumo_agua": 80
        }
      },
      {
        "id": 18,
        "nome": "Rua Jos\u00e9 Bonif\u00e1cio",
        "bairro": "Vila Humait\u00e1",
        "lat": -23.6707556787248,
        "lng": -46.52849811962737,
        "status": {
          "vazamento": false,
          "obra": true,
          "qualidade": 24,
          "consumo_agua": 331
        }
      },
      {
        "id": 19,
        "nome": "Rua dos Vianas",
        "bairro": "S\u00edtio dos Vianas",
        "lat": -23.710710148329184,
        "lng": -46.514843023887686,
        "status": {
          "vazamento": true,
          "obra": false,
          "qualidade": 62,
          "consumo_agua": 490
        }
      },
      {
        "id": 20,
        "nome": "Rua dos Coqueiros",
        "bairro": "Jardim Las Vegas",
        "lat": -23.634991909814865,
        "lng": -46.54306661777767,
        "status": {
          "vazamento": true,
          "obra": false,
          "qualidade": 10,
          "consumo_agua": 143
        }
      }
    ]
  },
  {
    "timestamp": "2025-10-06T22:29:31.409115",
    "ruas": [
      {
        "id": 1,
        "nome": "Rua Coronel Oliveira Lima",
        "bairro": "Centro",
        "lat": -23.656440642397023,
        "lng": -46.52713433312033,
        "status": {
          "vazamento": false,
          "obra": false,
          "qualidade": 76,
          "consumo_agua": 344
        }
      },
      {
        "id": 2,
        "nome": "Avenida Dom Pedro II",
        "bairro": "Vila Bastos",
        "lat": -23.641177693500946,
        "lng": -46.54059526195661,
        "status": {
          "vazamento": true,
          "obra": true,
          "qualidade": 58,
          "consumo_agua": 155
        }
      },
      {
        "id": 3,
        "nome": "Rua das Figueiras",
        "bairro": "Jardim",
        "lat": -23.645144053822314,
        "lng": -46.5421068042849,
        "status": {
          "vazamento": true,
          "obra": false,
          "qualidade": 45,
          "consumo_agua": 83
        }
      },
      {
        "id": 4,
        "nome": "Avenida Portugal",
        "bairro": "Vila Alzira",
        "lat": -23.66306824488266,
        "lng": -46.53321313312019,
        "status": {
          "vazamento": false,
          "obra": true,
          "qualidade": 90,
          "consumo_agua": 415
        }
      },
      {
        "id": 5,
        "nome": "Rua Carij\u00f3s",
        "bairro": "Vila Linda",
        "lat": -23.686756303704435,
        "lng": -46.52195377544774,
        "status": {
          "vazamento": true,
          "obra": false,
          "qualidade": 2,
          "consumo_agua": 56
        }
      },
      {
        "id": 6,
        "nome": "Avenida Firestone",
        "bairro": "Vila Am\u00e9rica",
        "lat": -23.673820822957676,
        "lng": -46.51771880428405,
        "status": {
          "vazamento": true,
          "obra": true,
          "qualidade": 59,
          "consumo_agua": 441
        }
      },
      {
        "id": 7,
        "nome": "Rua Orat\u00f3rio",
        "bairro": "Parque Orat\u00f3rio",
        "lat": -23.646185586712082,
        "lng": -46.52580015836169,
        "status": {
          "vazamento": true,
          "obra": true,
          "qualidade": 11,
          "consumo_agua": 94
        }
      },
      {
        "id": 8,
        "nome": "Rua Giovanni Battista Pirelli",
        "bairro": "Utinga",
        "lat": -23.66534763193009,
        "lng": -46.49779890428419,
        "status": {
          "vazamento": false,
          "obra": true,
          "qualidade": 90,
          "consumo_agua": 79
        }
      },
      {
        "id": 9,
        "nome": "Rua Catequese",
        "bairro": "Vila Assun\u00e7\u00e3o",
        "lat": -23.657100851514766,
        "lng": -46.53787033312041,
        "status": {
          "vazamento": false,
          "obra": true,
          "qualidade": 21,
          "consumo_agua": 262
        }
      },
      {
        "id": 10,
        "nome": "Rua Laura",
        "bairro": "Vila Palmares",
        "lat": -23.661725659351013,
        "lng": -46.534404319627804,
        "status": {
          "vazamento": true,
          "obra": false,
          "qualidade": 42,
          "consumo_agua": 425
        }
      },
      {
        "id": 11,
        "nome": "Rua Caminho do Pilar",
        "bairro": "Vila Camil\u00f3polis",
        "lat": -23.672958378723294,
        "lng": -46.54103709079151,
        "status": {
          "vazamento": false,
          "obra": false,
          "qualidade": 8,
          "consumo_agua": 394
        }
      },
      {
        "id": 12,
        "nome": "Rua das Hort\u00eancias",
        "bairro": "Parque das Na\u00e7\u00f5es",
        "lat": -23.683418730177046,
        "lng": -46.51671438894033,
        "status": {
          "vazamento": true,
          "obra": false,
          "qualidade": 26,
          "consumo_agua": 367
        }
      },
      {
        "id": 13,
        "nome": "Rua Alfredo Maluf",
        "bairro": "Vila Metal\u00fargica",
        "lat": -23.612510678764714,
        "lng": -46.574037775450144,
        "status": {
          "vazamento": true,
          "obra": true,
          "qualidade": 8,
          "consumo_agua": 79
        }
      },
      {
        "id": 14,
        "nome": "Rua Igarapava",
        "bairro": "Jardim Santo Andr\u00e9",
        "lat": -23.66696203168621,
        "lng": -46.55183836195601,
        "status": {
          "vazamento": false,
          "obra": false,
          "qualidade": 70,
          "consumo_agua": 191
        }
      },
      {
        "id": 15,
        "nome": "Rua das Mon\u00e7\u00f5es",
        "bairro": "Campestre",
        "lat": -23.65395317873637,
        "lng": -46.53731830428472,
        "status": {
          "vazamento": false,
          "obra": true,
          "qualidade": 20,
          "consumo_agua": 67
        }
      },
      {
        "id": 16,
        "nome": "Rua Ant\u00f4nio Cardoso",
        "bairro": "Vila Francisco Matarazzo",
        "lat": -23.661292931516286,
        "lng": -46.521383915261005,
        "status": {
          "vazamento": false,
          "obra": false,
          "qualidade": 14,
          "consumo_agua": 479
        }
      },
      {
        "id": 17,
        "nome": "Rua S\u00e3o Vicente",
        "bairro": "Vila Valpara\u00edso",
        "lat": -23.652706061390358,
        "lng": -46.53055757544888,
        "status": {
          "vazamento": true,
          "obra": true,
          "qualidade": 36,
          "consumo_agua": 74
        }
      },
      {
        "id": 18,
        "nome": "Rua Jos\u00e9 Bonif\u00e1cio",
        "bairro": "Vila Humait\u00e1",
        "lat": -23.6707556787248,
        "lng": -46.52849811962737,
        "status": {
          "vazamento": false,
          "obra": true,
          "qualidade": 7,
          "consumo_agua": 347
        }
      },
      {
        "id": 19,
        "nome": "Rua dos Vianas",
        "bairro": "S\u00edtio dos Vianas",
        "lat": -23.710710148329184,
        "lng": -46.514843023887686,
        "status": {
          "vazamento": false,
          "obra": true,
          "qualidade": 58,
          "consumo_agua": 488
        }
      },
      {
        "id": 20,
        "nome": "Rua dos Coqueiros",
        "bairro": "Jardim Las Vegas",
        "lat": -23.634991909814865,
        "lng": -46.54306661777767,
        "status": {
          "vazamento": false,
          "obra": false,
          "qualidade": 41,
          "consumo_agua": 161
        }
      }
    ]
  },
  {
    "timestamp": "2025-10-06T22:29:31.703847",
    "ruas": [
      {
        "id": 1,
        "nome": "Rua Coronel Oliveira Lima",
        "bairro": "Centro",
        "lat": -23.656440642397023,
        "lng": -46.52713433312033,
        "status": {
          "vazamento": false,
          "obra": true,
          "qualidade": 58,
          "consumo_agua": 364
        }
      },
      {
        "id": 2,
        "nome": "Avenida Dom Pedro II",
        "bairro": "Vila Bastos",
        "lat": -23.641177693500946,
        "lng": -46.54059526195661,
        "status": {
          "vazamento": true,
          "obra": false,
          "qualidade": 68,
          "consumo_agua": 144
        }
      },
      {
        "id": 3,
        "nome": "Rua das Figueiras",
        "bairro": "Jardim",
        "lat": -23.645144053822314,
        "lng": -46.5421068042849,
        "status": {
          "vazamento": true,
          "obra": false,
          "qualidade": 68,
          "consumo_agua": 81
        }
      },
      {
        "id": 4,
        "nome": "Avenida Portugal",
        "bairro": "Vila Alzira",
        "lat": -23.66306824488266,
        "lng": -46.53321313312019,
        "status": {
          "vazamento": true,
          "obra": true,
          "qualidade": 23,
          "consumo_agua": 405
        }
      },
      {
        "id": 5,
        "nome": "Rua Carij\u00f3s",
        "bairro": "Vila Linda",
        "lat": -23.686756303704435,
        "lng": -46.52195377544774,
        "status": {
          "vazamento": false,
          "obra": false,
          "qualidade": 62,
          "consumo_agua": 69
        }
      },
      {
        "id": 6,
        "nome": "Avenida Firestone",
        "bairro": "Vila Am\u00e9rica",
        "lat": -23.673820822957676,
        "lng": -46.51771880428405,
        "status": {
          "vazamento": false,
          "obra": false,
          "qualidade": 96,
          "consumo_agua": 445
        }
      },
      {
        "id": 7,
        "nome": "Rua Orat\u00f3rio",
        "bairro": "Parque Orat\u00f3rio",
        "lat": -23.646185586712082,
        "lng": -46.52580015836169,
        "status": {
          "vazamento": true,
          "obra": false,
          "qualidade": 84,
          "consumo_agua": 101
        }
      },
      {
        "id": 8,
        "nome": "Rua Giovanni Battista Pirelli",
        "bairro": "Utinga",
        "lat": -23.66534763193009,
        "lng": -46.49779890428419,
        "status": {
          "vazamento": true,
          "obra": true,
          "qualidade": 64,
          "consumo_agua": 84
        }
      },
      {
        "id": 9,
        "nome": "Rua Catequese",
        "bairro": "Vila Assun\u00e7\u00e3o",
        "lat": -23.657100851514766,
        "lng": -46.53787033312041,
        "status": {
          "vazamento": false,
          "obra": true,
          "qualidade": 56,
          "consumo_agua": 254
        }
      },
      {
        "id": 10,
        "nome": "Rua Laura",
        "bairro": "Vila Palmares",
        "lat": -23.661725659351013,
        "lng": -46.534404319627804,
        "status": {
          "vazamento": true,
          "obra": true,
          "qualidade": 95,
          "consumo_agua": 440
        }
      },
      {
        "id": 11,
        "nome": "Rua Caminho do Pilar",
        "bairro": "Vila Camil\u00f3polis",
        "lat": -23.672958378723294,
        "lng": -46.54103709079151,
        "status": {
          "vazamento": false,
          "obra": true,
          "qualidade": 57,
          "consumo_agua": 400
        }
      },
      {
        "id": 12,
        "nome": "Rua das Hort\u00eancias",
        "bairro": "Parque das Na\u00e7\u00f5es",
        "lat": -23.683418730177046,
        "lng": -46.51671438894033,
        "status": {
          "vazamento": true,
          "obra": true,
          "qualidade": 88,
          "consumo_agua": 375
        }
      },
      {
        "id": 13,
        "nome": "Rua Alfredo Maluf",
        "bairro": "Vila Metal\u00fargica",
        "lat": -23.612510678764714,
        "lng": -46.574037775450144,
        "status": {
          "vazamento": false,
          "obra": true,
          "qualidade": 7,
          "consumo_agua": 94
        }
      },
      {
        "id": 14,
        "nome": "Rua Igarapava",
        "bairro": "Jardim Santo Andr\u00e9",
        "lat": -23.66696203168621,
        "lng": -46.55183836195601,
        "status": {
          "vazamento": true,
          "obra": false,
          "qualidade": 76,
          "consumo_agua": 178
        }
      },
      {
        "id": 15,
        "nome": "Rua das Mon\u00e7\u00f5es",
        "bairro": "Campestre",
        "lat": -23.65395317873637,
        "lng": -46.53731830428472,
        "status": {
          "vazamento": true,
          "obra": true,
          "qualidade": 25,
          "consumo_agua": 70
        }
      },
      {
        "id": 16,
        "nome": "Rua Ant\u00f4nio Cardoso",
        "bairro": "Vila Francisco Matarazzo",
        "lat": -23.661292931516286,
        "lng": -46.521383915261005,
        "status": {
          "vazamento": false,
          "obra": false,
          "qualidade": 33,
          "consumo_agua": 461
        }
      },
      {
        "id": 17,
        "nome": "Rua S\u00e3o Vicente",
        "bairro": "Vila Valpara\u00edso",
        "lat": -23.652706061390358,
        "lng": -46.53055757544888,
        "status": {
          "vazamento": true,
          "obra": false,
          "qualidade": 13,
          "consumo_agua": 63
        }
      },
      {
        "id": 18,
        "nome": "Rua Jos\u00e9 Bonif\u00e1cio",
        "bairro": "Vila Humait\u00e1",
        "lat": -23.6707556787248,
        "lng": -46.52849811962737,
        "status": {
          "vazamento": true,
          "obra": false,
          "qualidade": 1,
          "consumo_agua": 365
        }
      },
      {
        "id": 19,
        "nome": "Rua dos Vianas",
        "bairro": "S\u00edtio dos Vianas",
        "lat": -23.710710148329184,
        "lng": -46.514843023887686,
        "status": {
          "vazamento": false,
          "obra": false,
          "qualidade": 79,
          "consumo_agua": 496
        }
      },
      {
        "id": 20,
        "nome": "Rua dos Coqueiros",
        "bairro": "Jardim Las Vegas",
        "lat": -23.634991909814865,
        "lng": -46.54306661777767,
        "status": {
          "vazamento": false,
          "obra": true,
          "qualidade": 36,
          "consumo_agua": 178
        }
      }
    ]
  },
  {
    "timestamp": "2025-10-06T22:30:31.436234",
    "ruas": [
      {
        "id": 1,
        "nome": "Rua Coronel Oliveira Lima",
        "bairro": "Centro",
        "lat": -23.656440642397023,
        "lng": -46.52713433312033,
        "status": {
          "vazamento": false,
          "obra": true,
          "qualidade": 55,
          "consumo_agua": 375
        }
      },
      {
        "id": 2,
        "nome": "Avenida Dom Pedro II",
        "bairro": "Vila Bastos",
        "lat": -23.641177693500946,
        "lng": -46.54059526195661,
        "status": {
          "vazamento": true,
          "obra": true,
          "qualidade": 67,
          "consumo_agua": 126
        }
      },
      {
        "id": 3,
        "nome": "Rua das Figueiras",
        "bairro": "Jardim",
        "lat": -23.645144053822314,
        "lng": -46.5421068042849,
        "status": {
          "vazamento": true,
          "obra": false,
          "qualidade": 47,
          "consumo_agua": 81
        }
      },
      {
        "id": 4,
        "nome": "Avenida Portugal",
        "bairro": "Vila Alzira",
        "lat": -23.66306824488266,
        "lng": -46.53321313312019,
        "status": {
          "vazamento": true,
          "obra": true,
          "qualidade": 26,
          "consumo_agua": 393
        }
      },
      {
        "id": 5,
        "nome": "Rua Carij\u00f3s",
        "bairro": "Vila Linda",
        "lat": -23.686756303704435,
        "lng": -46.52195377544774,
        "status": {
          "vazamento": true,
          "obra": false,
          "qualidade": 65,
          "consumo_agua": 88
        }
      },
      {
        "id": 6,
        "nome": "Avenida Firestone",
        "bairro": "Vila Am\u00e9rica",
        "lat": -23.673820822957676,
        "lng": -46.51771880428405,
        "status": {
          "vazamento": true,
          "obra": true,
          "qualidade": 2,
          "consumo_agua": 434
        }
      },
      {
        "id": 7,
        "nome": "Rua Orat\u00f3rio",
        "bairro": "Parque Orat\u00f3rio",
        "lat": -23.646185586712082,
        "lng": -46.52580015836169,
        "status": {
          "vazamento": false,
          "obra": false,
          "qualidade": 55,
          "consumo_agua": 81
        }
      },
      {
        "id": 8,
        "nome": "Rua Giovanni Battista Pirelli",
        "bairro": "Utinga",
        "lat": -23.66534763193009,
        "lng": -46.49779890428419,
        "status": {
          "vazamento": false,
          "obra": true,
          "qualidade": 92,
          "consumo_agua": 104
        }
      },
      {
        "id": 9,
        "nome": "Rua Catequese",
        "bairro": "Vila Assun\u00e7\u00e3o",
        "lat": -23.657100851514766,
        "lng": -46.53787033312041,
        "status": {
          "vazamento": false,
          "obra": false,
          "qualidade": 83,
          "consumo_agua": 235
        }
      },
      {
        "id": 10,
        "nome": "Rua Laura",
        "bairro": "Vila Palmares",
        "lat": -23.661725659351013,
        "lng": -46.534404319627804,
        "status": {
          "vazamento": false,
          "obra": true,
          "qualidade": 41,
          "consumo_agua": 452
        }
      },
      {
        "id": 11,
        "nome": "Rua Caminho do Pilar",
        "bairro": "Vila Camil\u00f3polis",
        "lat": -23.672958378723294,
        "lng": -46.54103709079151,
        "status": {
          "vazamento": true,
          "obra": true,
          "qualidade": 19,
          "consumo_agua": 406
        }
      },
      {
        "id": 12,
        "nome": "Rua das Hort\u00eancias",
        "bairro": "Parque das Na\u00e7\u00f5es",
        "lat": -23.683418730177046,
        "lng": -46.51671438894033,
        "status": {
          "vazamento": false,
          "obra": false,
          "qualidade": 49,
          "consumo_agua": 363
        }
      },
      {
        "id": 13,
        "nome": "Rua Alfredo Maluf",
        "bairro": "Vila Metal\u00fargica",
        "lat": -23.612510678764714,
        "lng": -46.574037775450144,
        "status": {
          "vazamento": true,
          "obra": false,
          "qualidade": 58,
          "consumo_agua": 113
        }
      },
      {
        "id": 14,
        "nome": "Rua Igarapava",
        "bairro": "Jardim Santo Andr\u00e9",
        "lat": -23.66696203168621,
        "lng": -46.55183836195601,
        "status": {
          "vazamento": false,
          "obra": false,
          "qualidade": 35,
          "consumo_agua": 195
        }
      },
      {
        "id": 15,
        "nome": "Rua das Mon\u00e7\u00f5es",
        "bairro": "Campestre",
        "lat": -23.65395317873637,
        "lng": -46.53731830428472,
        "status": {
          "vazamento": true,
          "obra": true,
          "qualidade": 59,
          "consumo_agua": 77
        }
      },
      {
        "id": 16,
        "nome": "Rua Ant\u00f4nio Cardoso",
        "bairro": "Vila Francisco Matarazzo",
        "lat": -23.661292931516286,
        "lng": -46.521383915261005,
        "status": {
          "vazamento": false,
          "obra": true,
          "qualidade": 10,
          "consumo_agua": 481
        }
      },
      {
        "id": 17,
        "nome": "Rua S\u00e3o Vicente",
        "bairro": "Vila Valpara\u00edso",
        "lat": -23.652706061390358,
        "lng": -46.53055757544888,
        "status": {
          "vazamento": false,
          "obra": false,
          "qualidade": 84,
          "consumo_agua": 80
        }
      },
      {
        "id": 18,
        "nome": "Rua Jos\u00e9 Bonif\u00e1cio",
        "bairro": "Vila Humait\u00e1",
        "lat": -23.6707556787248,
        "lng": -46.52849811962737,
        "status": {
          "vazamento": true,
          "obra": false,
          "qualidade": 83,
          "consumo_agua": 365
        }
      },
      {
        "id": 19,
        "nome": "Rua dos Vianas",
        "bairro": "S\u00edtio dos Vianas",
        "lat": -23.710710148329184,
        "lng": -46.514843023887686,
        "status": {
          "vazamento": false,
          "obra": true,
          "qualidade": 95,
          "consumo_agua": 494
        }
      },
      {
        "id": 20,
        "nome": "Rua dos Coqueiros",
        "bairro": "Jardim Las Vegas",
        "lat": -23.634991909814865,
        "lng": -46.54306661777767,
        "status": {
          "vazamento": false,
          "obra": true,
          "qualidade": 89,
          "consumo_agua": 184
        }
      }
    ]
  },
  {
    "timestamp": "2025-10-06T22:30:31.735556",
    "ruas": [
      {
        "id": 1,
        "nome": "Rua Coronel Oliveira Lima",
        "bairro": "Centro",
        "lat": -23.656440642397023,
        "lng": -46.52713433312033,
        "status": {
          "vazamento": false,
          "obra": true,
          "qualidade": 37,
          "consumo_agua": 382
        }
      },
      {
        "id": 2,
        "nome": "Avenida Dom Pedro II",
        "bairro": "Vila Bastos",
        "lat": -23.641177693500946,
        "lng": -46.54059526195661,
        "status": {
          "vazamento": true,
          "obra": true,
          "qualidade": 33,
          "consumo_agua": 113
        }
      },
      {
        "id": 3,
        "nome": "Rua das Figueiras",
        "bairro": "Jardim",
        "lat": -23.645144053822314,
        "lng": -46.5421068042849,
        "status": {
          "vazamento": false,
          "obra": false,
          "qualidade": 24,
          "consumo_agua": 70
        }
      },
      {
        "id": 4,
        "nome": "Avenida Portugal",
        "bairro": "Vila Alzira",
        "lat": -23.66306824488266,
        "lng": -46.53321313312019,
        "status": {
          "vazamento": false,
          "obra": false,
          "qualidade": 93,
          "consumo_agua": 392
        }
      },
      {
        "id": 5,
        "nome": "Rua Carij\u00f3s",
        "bairro": "Vila Linda",
        "lat": -23.686756303704435,
        "lng": -46.52195377544774,
        "status": {
          "vazamento": false,
          "obra": false,
          "qualidade": 95,
          "consumo_agua": 77
        }
      },
      {
        "id": 6,
        "nome": "Avenida Firestone",
        "bairro": "Vila Am\u00e9rica",
        "lat": -23.673820822957676,
        "lng": -46.51771880428405,
        "status": {
          "vazamento": true,
          "obra": true,
          "qualidade": 70,
          "consumo_agua": 416
        }
      },
      {
        "id": 7,
        "nome": "Rua Orat\u00f3rio",
        "bairro": "Parque Orat\u00f3rio",
        "lat": -23.646185586712082,
        "lng": -46.52580015836169,
        "status": {
          "vazamento": false,
          "obra": true,
          "qualidade": 27,
          "consumo_agua": 66
        }
      },
      {
        "id": 8,
        "nome": "Rua Giovanni Battista Pirelli",
        "bairro": "Utinga",
        "lat": -23.66534763193009,
        "lng": -46.49779890428419,
        "status": {
          "vazamento": true,
          "obra": false,
          "qualidade": 89,
          "consumo_agua": 89
        }
      },
      {
        "id": 9,
        "nome": "Rua Catequese",
        "bairro": "Vila Assun\u00e7\u00e3o",
        "lat": -23.657100851514766,
        "lng": -46.53787033312041,
        "status": {
          "vazamento": false,
          "obra": false,
          "qualidade": 29,
          "consumo_agua": 244
        }
      },
      {
        "id": 10,
        "nome": "Rua Laura",
        "bairro": "Vila Palmares",
        "lat": -23.661725659351013,
        "lng": -46.534404319627804,
        "status": {
          "vazamento": false,
          "obra": true,
          "qualidade": 52,
          "consumo_agua": 437
        }
      },
      {
        "id": 11,
        "nome": "Rua Caminho do Pilar",
        "bairro": "Vila Camil\u00f3polis",
        "lat": -23.672958378723294,
        "lng": -46.54103709079151,
        "status": {
          "vazamento": false,
          "obra": true,
          "qualidade": 4,
          "consumo_agua": 426
        }
      },
      {
        "id": 12,
        "nome": "Rua das Hort\u00eancias",
        "bairro": "Parque das Na\u00e7\u00f5es",
        "lat": -23.683418730177046,
        "lng": -46.51671438894033,
        "status": {
          "vazamento": false,
          "obra": true,
          "qualidade": 86,
          "consumo_agua": 368
        }
      },
      {
        "id": 13,
        "nome": "Rua Alfredo Maluf",
        "bairro": "Vila Metal\u00fargica",
        "lat": -23.612510678764714,
        "lng": -46.574037775450144,
        "status": {
          "vazamento": true,
          "obra": true,
          "qualidade": 61,
          "consumo_agua": 93
        }
      },
      {
        "id": 14,
        "nome": "Rua Igarapava",
        "bairro": "Jardim Santo Andr\u00e9",
        "lat": -23.66696203168621,
        "lng": -46.55183836195601,
        "status": {
          "vazamento": false,
          "obra": true,
          "qualidade": 1,
          "consumo_agua": 197
        }
      },
      {
        "id": 15,
        "nome": "Rua das Mon\u00e7\u00f5es",
        "bairro": "Campestre",
        "lat": -23.65395317873637,
        "lng": -46.53731830428472,
        "status": {
          "vazamento": true,
          "obra": false,
          "qualidade": 30,
          "consumo_agua": 61
        }
      },
      {
        "id": 16,
        "nome": "Rua Ant\u00f4nio Cardoso",
        "bairro": "Vila Francisco Matarazzo",
        "lat": -23.661292931516286,
        "lng": -46.521383915261005,
        "status": {
          "vazamento": true,
          "obra": false,
          "qualidade": 98,
          "consumo_agua": 488
        }
      },
      {
        "id": 17,
        "nome": "Rua S\u00e3o Vicente",
        "bairro": "Vila Valpara\u00edso",
        "lat": -23.652706061390358,
        "lng": -46.53055757544888,
        "status": {
          "vazamento": false,
          "obra": true,
          "qualidade": 17,
          "consumo_agua": 65
        }
      },
      {
        "id": 18,
        "nome": "Rua Jos\u00e9 Bonif\u00e1cio",
        "bairro": "Vila Humait\u00e1",
        "lat": -23.6707556787248,
        "lng": -46.52849811962737,
        "status": {
          "vazamento": true,
          "obra": false,
          "qualidade": 48,
          "consumo_agua": 364
        }
      },
      {
        "id": 19,
        "nome": "Rua dos Vianas",
        "bairro": "S\u00edtio dos Vianas",
        "lat": -23.710710148329184,
        "lng": -46.514843023887686,
        "status": {
          "vazamento": true,
          "obra": false,
          "qualidade": 65,
          "consumo_agua": 475
        }
      },
      {
        "id": 20,
        "nome": "Rua dos Coqueiros",
        "bairro": "Jardim Las Vegas",
        "lat": -23.634991909814865,
        "lng": -46.54306661777767,
        "status": {
          "vazamento": true,
          "obra": true,
          "qualidade": 80,
          "consumo_agua": 177
        }
      }
    ]
  },
  {
    "timestamp": "2025-10-06T22:31:31.471860",
    "ruas": [
      {
        "id": 1,
        "nome": "Rua Coronel Oliveira Lima",
        "bairro": "Centro",
        "lat": -23.656440642397023,
        "lng": -46.52713433312033,
        "status": {
          "vazamento": false,
          "obra": true,
          "qualidade": 79,
          "consumo_agua": 395
        }
      },
      {
        "id": 2,
        "nome": "Avenida Dom Pedro II",
        "bairro": "Vila Bastos",
        "lat": -23.641177693500946,
        "lng": -46.54059526195661,
        "status": {
          "vazamento": false,
          "obra": true,
          "qualidade": 43,
          "consumo_agua": 117
        }
      },
      {
        "id": 3,
        "nome": "Rua das Figueiras",
        "bairro": "Jardim",
        "lat": -23.645144053822314,
        "lng": -46.5421068042849,
        "status": {
          "vazamento": false,
          "obra": true,
          "qualidade": 35,
          "consumo_agua": 89
        }
      },
      {
        "id": 4,
        "nome": "Avenida Portugal",
        "bairro": "Vila Alzira",
        "lat": -23.66306824488266,
        "lng": -46.53321313312019,
        "status": {
          "vazamento": true,
          "obra": true,
          "qualidade": 21,
          "consumo_agua": 407
        }
      },
      {
        "id": 5,
        "nome": "Rua Carij\u00f3s",
        "bairro": "Vila Linda",
        "lat": -23.686756303704435,
        "lng": -46.52195377544774,
        "status": {
          "vazamento": false,
          "obra": true,
          "qualidade": 84,
          "consumo_agua": 90
        }
      },
      {
        "id": 6,
        "nome": "Avenida Firestone",
        "bairro": "Vila Am\u00e9rica",
        "lat": -23.673820822957676,
        "lng": -46.51771880428405,
        "status": {
          "vazamento": false,
          "obra": true,
          "qualidade": 8,
          "consumo_agua": 397
        }
      },
      {
        "id": 7,
        "nome": "Rua Orat\u00f3rio",
        "bairro": "Parque Orat\u00f3rio",
        "lat": -23.646185586712082,
        "lng": -46.52580015836169,
        "status": {
          "vazamento": true,
          "obra": true,
          "qualidade": 92,
          "consumo_agua": 66
        }
      },
      {
        "id": 8,
        "nome": "Rua Giovanni Battista Pirelli",
        "bairro": "Utinga",
        "lat": -23.66534763193009,
        "lng": -46.49779890428419,
        "status": {
          "vazamento": false,
          "obra": false,
          "qualidade": 39,
          "consumo_agua": 84
        }
      },
      {
        "id": 9,
        "nome": "Rua Catequese",
        "bairro": "Vila Assun\u00e7\u00e3o",
        "lat": -23.657100851514766,
        "lng": -46.53787033312041,
        "status": {
          "vazamento": false,
          "obra": false,
          "qualidade": 78,
          "consumo_agua": 224
        }
      },
      {
        "id": 10,
        "nome": "Rua Laura",
        "bairro": "Vila Palmares",
        "lat": -23.661725659351013,
        "lng": -46.534404319627804,
        "status": {
          "vazamento": true,
          "obra": true,
          "qualidade": 92,
          "consumo_agua": 448
        }
      },
      {
        "id": 11,
        "nome": "Rua Caminho do Pilar",
        "bairro": "Vila Camil\u00f3polis",
        "lat": -23.672958378723294,
        "lng": -46.54103709079151,
        "status": {
          "vazamento": false,
          "obra": true,
          "qualidade": 18,
          "consumo_agua": 433
        }
      },
      {
        "id": 12,
        "nome": "Rua das Hort\u00eancias",
        "bairro": "Parque das Na\u00e7\u00f5es",
        "lat": -23.683418730177046,
        "lng": -46.51671438894033,
        "status": {
          "vazamento": false,
          "obra": false,
          "qualidade": 16,
          "consumo_agua": 370
        }
      },
      {
        "id": 13,
        "nome": "Rua Alfredo Maluf",
        "bairro": "Vila Metal\u00fargica",
        "lat": -23.612510678764714,
        "lng": -46.574037775450144,
        "status": {
          "vazamento": true,
          "obra": false,
          "qualidade": 44,
          "consumo_agua": 87
        }
      },
      {
        "id": 14,
        "nome": "Rua Igarapava",
        "bairro": "Jardim Santo Andr\u00e9",
        "lat": -23.66696203168621,
        "lng": -46.55183836195601,
        "status": {
          "vazamento": true,
          "obra": true,
          "qualidade": 45,
          "consumo_agua": 204
        }
      },
      {
        "id": 15,
        "nome": "Rua das Mon\u00e7\u00f5es",
        "bairro": "Campestre",
        "lat": -23.65395317873637,
        "lng": -46.53731830428472,
        "status": {
          "vazamento": true,
          "obra": true,
          "qualidade": 74,
          "consumo_agua": 61
        }
      },
      {
        "id": 16,
        "nome": "Rua Ant\u00f4nio Cardoso",
        "bairro": "Vila Francisco Matarazzo",
        "lat": -23.661292931516286,
        "lng": -46.521383915261005,
        "status": {
          "vazamento": true,
          "obra": true,
          "qualidade": 30,
          "consumo_agua": 471
        }
      },
      {
        "id": 17,
        "nome": "Rua S\u00e3o Vicente",
        "bairro": "Vila Valpara\u00edso",
        "lat": -23.652706061390358,
        "lng": -46.53055757544888,
        "status": {
          "vazamento": true,
          "obra": true,
          "qualidade": 18,
          "consumo_agua": 79
        }
      },
      {
        "id": 18,
        "nome": "Rua Jos\u00e9 Bonif\u00e1cio",
        "bairro": "Vila Humait\u00e1",
        "lat": -23.6707556787248,
        "lng": -46.52849811962737,
        "status": {
          "vazamento": true,
          "obra": false,
          "qualidade": 73,
          "consumo_agua": 367
        }
      },
      {
        "id": 19,
        "nome": "Rua dos Vianas",
        "bairro": "S\u00edtio dos Vianas",
        "lat": -23.710710148329184,
        "lng": -46.514843023887686,
        "status": {
          "vazamento": true,
          "obra": true,
          "qualidade": 17,
          "consumo_agua": 463
        }
      },
      {
        "id": 20,
        "nome": "Rua dos Coqueiros",
        "bairro": "Jardim Las Vegas",
        "lat": -23.634991909814865,
        "lng": -46.54306661777767,
        "status": {
          "vazamento": true,
          "obra": false,
          "qualidade": 34,
          "consumo_agua": 196
        }
      }
    ]
  },
  {
    "timestamp": "2025-10-06T22:31:31.776570",
    "ruas": [
      {
        "id": 1,
        "nome": "Rua Coronel Oliveira Lima",
        "bairro": "Centro",
        "lat": -23.656440642397023,
        "lng": -46.52713433312033,
        "status": {
          "vazamento": false,
          "obra": false,
          "qualidade": 14,
          "consumo_agua": 402
        }
      },
      {
        "id": 2,
        "nome": "Avenida Dom Pedro II",
        "bairro": "Vila Bastos",
        "lat": -23.641177693500946,
        "lng": -46.54059526195661,
        "status": {
          "vazamento": true,
          "obra": false,
          "qualidade": 11,
          "consumo_agua": 132
        }
      },
      {
        "id": 3,
        "nome": "Rua das Figueiras",
        "bairro": "Jardim",
        "lat": -23.645144053822314,
        "lng": -46.5421068042849,
        "status": {
          "vazamento": false,
          "obra": true,
          "qualidade": 85,
          "consumo_agua": 93
        }
      },
      {
        "id": 4,
        "nome": "Avenida Portugal",
        "bairro": "Vila Alzira",
        "lat": -23.66306824488266,
        "lng": -46.53321313312019,
        "status": {
          "vazamento": true,
          "obra": true,
          "qualidade": 48,
          "consumo_agua": 396
        }
      },
      {
        "id": 5,
        "nome": "Rua Carij\u00f3s",
        "bairro": "Vila Linda",
        "lat": -23.686756303704435,
        "lng": -46.52195377544774,
        "status": {
          "vazamento": false,
          "obra": true,
          "qualidade": 38,
          "consumo_agua": 104
        }
      },
      {
        "id": 6,
        "nome": "Avenida Firestone",
        "bairro": "Vila Am\u00e9rica",
        "lat": -23.673820822957676,
        "lng": -46.51771880428405,
        "status": {
          "vazamento": false,
          "obra": true,
          "qualidade": 26,
          "consumo_agua": 386
        }
      },
      {
        "id": 7,
        "nome": "Rua Orat\u00f3rio",
        "bairro": "Parque Orat\u00f3rio",
        "lat": -23.646185586712082,
        "lng": -46.52580015836169,
        "status": {
          "vazamento": true,
          "obra": true,
          "qualidade": 54,
          "consumo_agua": 67
        }
      },
      {
        "id": 8,
        "nome": "Rua Giovanni Battista Pirelli",
        "bairro": "Utinga",
        "lat": -23.66534763193009,
        "lng": -46.49779890428419,
        "status": {
          "vazamento": true,
          "obra": false,
          "qualidade": 43,
          "consumo_agua": 74
        }
      },
      {
        "id": 9,
        "nome": "Rua Catequese",
        "bairro": "Vila Assun\u00e7\u00e3o",
        "lat": -23.657100851514766,
        "lng": -46.53787033312041,
        "status": {
          "vazamento": false,
          "obra": false,
          "qualidade": 31,
          "consumo_agua": 243
        }
      },
      {
        "id": 10,
        "nome": "Rua Laura",
        "bairro": "Vila Palmares",
        "lat": -23.661725659351013,
        "lng": -46.534404319627804,
        "status": {
          "vazamento": false,
          "obra": true,
          "qualidade": 31,
          "consumo_agua": 455
        }
      },
      {
        "id": 11,
        "nome": "Rua Caminho do Pilar",
        "bairro": "Vila Camil\u00f3polis",
        "lat": -23.672958378723294,
        "lng": -46.54103709079151,
        "status": {
          "vazamento": false,
          "obra": true,
          "qualidade": 70,
          "consumo_agua": 420
        }
      },
      {
        "id": 12,
        "nome": "Rua das Hort\u00eancias",
        "bairro": "Parque das Na\u00e7\u00f5es",
        "lat": -23.683418730177046,
        "lng": -46.51671438894033,
        "status": {
          "vazamento": true,
          "obra": false,
          "qualidade": 95,
          "consumo_agua": 365
        }
      },
      {
        "id": 13,
        "nome": "Rua Alfredo Maluf",
        "bairro": "Vila Metal\u00fargica",
        "lat": -23.612510678764714,
        "lng": -46.574037775450144,
        "status": {
          "vazamento": false,
          "obra": false,
          "qualidade": 12,
          "consumo_agua": 83
        }
      },
      {
        "id": 14,
        "nome": "Rua Igarapava",
        "bairro": "Jardim Santo Andr\u00e9",
        "lat": -23.66696203168621,
        "lng": -46.55183836195601,
        "status": {
          "vazamento": false,
          "obra": false,
          "qualidade": 84,
          "consumo_agua": 216
        }
      },
      {
        "id": 15,
        "nome": "Rua das Mon\u00e7\u00f5es",
        "bairro": "Campestre",
        "lat": -23.65395317873637,
        "lng": -46.53731830428472,
        "status": {
          "vazamento": true,
          "obra": false,
          "qualidade": 13,
          "consumo_agua": 65
        }
      },
      {
        "id": 16,
        "nome": "Rua Ant\u00f4nio Cardoso",
        "bairro": "Vila Francisco Matarazzo",
        "lat": -23.661292931516286,
        "lng": -46.521383915261005,
        "status": {
          "vazamento": false,
          "obra": false,
          "qualidade": 27,
          "consumo_agua": 463
        }
      },
      {
        "id": 17,
        "nome": "Rua S\u00e3o Vicente",
        "bairro": "Vila Valpara\u00edso",
        "lat": -23.652706061390358,
        "lng": -46.53055757544888,
        "status": {
          "vazamento": false,
          "obra": false,
          "qualidade": 98,
          "consumo_agua": 90
        }
      },
      {
        "id": 18,
        "nome": "Rua Jos\u00e9 Bonif\u00e1cio",
        "bairro": "Vila Humait\u00e1",
        "lat": -23.6707556787248,
        "lng": -46.52849811962737,
        "status": {
          "vazamento": true,
          "obra": true,
          "qualidade": 80,
          "consumo_agua": 387
        }
      },
      {
        "id": 19,
        "nome": "Rua dos Vianas",
        "bairro": "S\u00edtio dos Vianas",
        "lat": -23.710710148329184,
        "lng": -46.514843023887686,
        "status": {
          "vazamento": false,
          "obra": false,
          "qualidade": 89,
          "consumo_agua": 481
        }
      },
      {
        "id": 20,
        "nome": "Rua dos Coqueiros",
        "bairro": "Jardim Las Vegas",
        "lat": -23.634991909814865,
        "lng": -46.54306661777767,
        "status": {
          "vazamento": false,
          "obra": true,
          "qualidade": 87,
          "consumo_agua": 190
        }
      }
    ]
  },
  {
    "timestamp": "2025-10-06T22:32:31.514064",
    "ruas": [
      {
        "id": 1,
        "nome": "Rua Coronel Oliveira Lima",
        "bairro": "Centro",
        "lat": -23.656440642397023,
        "lng": -46.52713433312033,
        "status": {
          "vazamento": true,
          "obra": false,
          "qualidade": 2,
          "consumo_agua": 399
        }
      },
      {
        "id": 2,
        "nome": "Avenida Dom Pedro II",
        "bairro": "Vila Bastos",
        "lat": -23.641177693500946,
        "lng": -46.54059526195661,
        "status": {
          "vazamento": true,
          "obra": false,
          "qualidade": 45,
          "consumo_agua": 130
        }
      },
      {
        "id": 3,
        "nome": "Rua das Figueiras",
        "bairro": "Jardim",
        "lat": -23.645144053822314,
        "lng": -46.5421068042849,
        "status": {
          "vazamento": false,
          "obra": true,
          "qualidade": 80,
          "consumo_agua": 109
        }
      },
      {
        "id": 4,
        "nome": "Avenida Portugal",
        "bairro": "Vila Alzira",
        "lat": -23.66306824488266,
        "lng": -46.53321313312019,
        "status": {
          "vazamento": true,
          "obra": true,
          "qualidade": 89,
          "consumo_agua": 395
        }
      },
      {
        "id": 5,
        "nome": "Rua Carij\u00f3s",
        "bairro": "Vila Linda",
        "lat": -23.686756303704435,
        "lng": -46.52195377544774,
        "status": {
          "vazamento": false,
          "obra": true,
          "qualidade": 67,
          "consumo_agua": 97
        }
      },
      {
        "id": 6,
        "nome": "Avenida Firestone",
        "bairro": "Vila Am\u00e9rica",
        "lat": -23.673820822957676,
        "lng": -46.51771880428405,
        "status": {
          "vazamento": false,
          "obra": false,
          "qualidade": 68,
          "consumo_agua": 376
        }
      },
      {
        "id": 7,
        "nome": "Rua Orat\u00f3rio",
        "bairro": "Parque Orat\u00f3rio",
        "lat": -23.646185586712082,
        "lng": -46.52580015836169,
        "status": {
          "vazamento": true,
          "obra": true,
          "qualidade": 59,
          "consumo_agua": 87
        }
      },
      {
        "id": 8,
        "nome": "Rua Giovanni Battista Pirelli",
        "bairro": "Utinga",
        "lat": -23.66534763193009,
        "lng": -46.49779890428419,
        "status": {
          "vazamento": false,
          "obra": true,
          "qualidade": 82,
          "consumo_agua": 54
        }
      },
      {
        "id": 9,
        "nome": "Rua Catequese",
        "bairro": "Vila Assun\u00e7\u00e3o",
        "lat": -23.657100851514766,
        "lng": -46.53787033312041,
        "status": {
          "vazamento": true,
          "obra": true,
          "qualidade": 15,
          "consumo_agua": 253
        }
      },
      {
        "id": 10,
        "nome": "Rua Laura",
        "bairro": "Vila Palmares",
        "lat": -23.661725659351013,
        "lng": -46.534404319627804,
        "status": {
          "vazamento": false,
          "obra": false,
          "qualidade": 72,
          "consumo_agua": 471
        }
      },
      {
        "id": 11,
        "nome": "Rua Caminho do Pilar",
        "bairro": "Vila Camil\u00f3polis",
        "lat": -23.672958378723294,
        "lng": -46.54103709079151,
        "status": {
          "vazamento": false,
          "obra": true,
          "qualidade": 82,
          "consumo_agua": 439
        }
      },
      {
        "id": 12,
        "nome": "Rua das Hort\u00eancias",
        "bairro": "Parque das Na\u00e7\u00f5es",
        "lat": -23.683418730177046,
        "lng": -46.51671438894033,
        "status": {
          "vazamento": true,
          "obra": true,
          "qualidade": 58,
          "consumo_agua": 378
        }
      },
      {
        "id": 13,
        "nome": "Rua Alfredo Maluf",
        "bairro": "Vila Metal\u00fargica",
        "lat": -23.612510678764714,
        "lng": -46.574037775450144,
        "status": {
          "vazamento": true,
          "obra": false,
          "qualidade": 43,
          "consumo_agua": 76
        }
      },
      {
        "id": 14,
        "nome": "Rua Igarapava",
        "bairro": "Jardim Santo Andr\u00e9",
        "lat": -23.66696203168621,
        "lng": -46.55183836195601,
        "status": {
          "vazamento": true,
          "obra": true,
          "qualidade": 12,
          "consumo_agua": 229
        }
      },