[
  {
    "timestamp": "2025-10-18T22:03:16.731901",
    "ruas": [
      {
        "id": 1,
        "nome": "Rua Coronel Oliveira Lima",
        "bairro": "Centro",
        "lat": -23.656440642397023,
        "lng": -46.52713433312033,
        "status": {
          "vazamento": true,
          "obra": false,
          "qualidade": 16,
          "consumo_agua": 133
        }
      },
      {
        "id": 2,
        "nome": "Avenida Dom Pedro II",
        "bairro": "Vila Bastos",
        "lat": -23.641177693500946,
        "lng": -46.54059526195661,
        "status": {
          "vazamento": false,
          "obra": true,
          "qualidade": 58,
          "consumo_agua": 415
        }
      },
      {
        "id": 3,
        "nome": "Rua das Figueiras",
        "bairro": "Jardim",
        "lat": -23.645144053822314,
        "lng": -46.5421068042849,
        "status": {
          "vazamento": true,
          "obra": false,
          "qualidade": 41,
          "consumo_agua": 335
        }
      },
      {
        "id": 4,
        "nome": "Avenida Portugal",
        "bairro": "Vila Alzira",
        "lat": -23.66306824488266,
        "lng": -46.53321313312019,
        "status": {
          "vazamento": false,
          "obra": true,
          "qualidade": 16,
          "consumo_agua": 279
        }
      },
      {
        "id": 5,
        "nome": "Rua Carij\u00f3s",
        "bairro": "Vila Linda",
        "lat": -23.686756303704435,
        "lng": -46.52195377544774,
        "status": {
          "vazamento": true,
          "obra": true,
          "qualidade": 17,
          "consumo_agua": 64
        }
      },
      {
        "id": 6,
        "nome": "Avenida Firestone",
        "bairro": "Vila Am\u00e9rica",
        "lat": -23.673820822957676,
        "lng": -46.51771880428405,
        "status": {
          "vazamento": true,
          "obra": false,
          "qualidade": 64,
          "consumo_agua": 310
        }
      },
      {
        "id": 7,
        "nome": "Rua Orat\u00f3rio",
        "bairro": "Parque Orat\u00f3rio",
        "lat": -23.646185586712082,
        "lng": -46.52580015836169,
        "status": {
          "vazamento": false,
          "obra": true,
          "qualidade": 19,
          "consumo_agua": 453
        }
      },
      {
        "id": 8,
        "nome": "Rua Giovanni Battista Pirelli",
        "bairro": "Utinga",
        "lat": -23.66534763193009,
        "lng": -46.49779890428419,
        "status": {
          "vazamento": false,
          "obra": true,
          "qualidade": 58,
          "consumo_agua": 344
        }
      },
      {
        "id": 9,
        "nome": "Rua Catequese",
        "bairro": "Vila Assun\u00e7\u00e3o",
        "lat": -23.657100851514766,
        "lng": -46.53787033312041,
        "status": {
          "vazamento": false,
          "obra": true,
          "qualidade": 69,
          "consumo_agua": 455
        }
      },
      {
        "id": 10,
        "nome": "Rua Laura",
        "bairro": "Vila Palmares",
        "lat": -23.661725659351013,
        "lng": -46.534404319627804,
        "status": {
          "vazamento": true,
          "obra": true,
          "qualidade": 64,
          "consumo_agua": 173
        }
      },
      {
        "id": 11,
        "nome": "Rua Caminho do Pilar",
        "bairro": "Vila Camil\u00f3polis",
        "lat": -23.672958378723294,
        "lng": -46.54103709079151,
        "status": {
          "vazamento": true,
          "obra": false,
          "qualidade": 54,
          "consumo_agua": 118
        }
      },
      {
        "id": 12,
        "nome": "Rua das Hort\u00eancias",
        "bairro": "Parque das Na\u00e7\u00f5es",
        "lat": -23.683418730177046,
        "lng": -46.51671438894033,
        "status": {
          "vazamento": false,
          "obra": false,
          "qualidade": 41,
          "consumo_agua": 118
        }
      },
      {
        "id": 13,
        "nome": "Rua Alfredo Maluf",
        "bairro": "Vila Metal\u00fargica",
        "lat": -23.612510678764714,
        "lng": -46.574037775450144,
        "status": {
          "vazamento": false,
          "obra": true,
          "qualidade": 13,
          "consumo_agua": 68
        }
      },
      {
        "id": 14,
        "nome": "Rua Igarapava",
        "bairro": "Jardim Santo Andr\u00e9",
        "lat": -23.66696203168621,
        "lng": -46.55183836195601,
        "status": {
          "vazamento": false,
          "obra": false,
          "qualidade": 0,
          "consumo_agua": 453
        }
      },
      {
        "id": 15,
        "nome": "Rua das Mon\u00e7\u00f5es",
        "bairro": "Campestre",
        "lat": -23.65395317873637,
        "lng": -46.53731830428472,
        "status": {
          "vazamento": false,
          "obra": false,
          "qualidade": 34,
          "consumo_agua": 430
        }
      },
      {
        "id": 16,
        "nome": "Rua Ant\u00f4nio Cardoso",
        "bairro": "Vila Francisco Matarazzo",
        "lat": -23.661292931516286,
        "lng": -46.521383915261005,
        "status": {
          "vazamento": false,
          "obra": false,
          "qualidade": 48,
          "consumo_agua": 413
        }
      },
      {
        "id": 17,
        "nome": "Rua S\u00e3o Vicente",
        "bairro": "Vila Valpara\u00edso",
        "lat": -23.652706061390358,
        "lng": -46.53055757544888,
        "status": {
          "vazamento": true,
          "obra": false,
          "qualidade": 32,
          "consumo_agua": 115
        }
      },
      {
        "id": 18,
        "nome": "Rua Jos\u00e9 Bonif\u00e1cio",
        "bairro": "Vila Humait\u00e1",
        "lat": -23.6707556787248,
        "lng": -46.52849811962737,
        "status": {
          "vazamento": false,
          "obra": false,
          "qualidade": 83,
          "consumo_agua": 500
        }
      },
      {
        "id": 19,
        "nome": "Rua dos Vianas",
        "bairro": "S\u00edtio dos Vianas",
        "lat": -23.710710148329184,
        "lng": -46.514843023887686,
        "status": {
          "vazamento": true,
          "obra": true,
          "qualidade": 64,
          "consumo_agua": 210
        }
      },
      {
        "id": 20,
        "nome": "Rua dos Coqueiros",
        "bairro": "Jardim Las Vegas",
        "lat": -23.634991909814865,
        "lng": -46.54306661777767,
        "status": {
          "vazamento": false,
          "obra": true,
          "qualidade": 39,
          "consumo_agua": 474
        }
      }
    ]
  },
  {
    "timestamp": "2025-10-18T22:04:16.813967",
    "ruas": [
      {
        "id": 1,
        "nome": "Rua Coronel Oliveira Lima",
        "bairro": "Centro",
        "lat": -23.656440642397023,
        "lng": -46.52713433312033,
        "status": {
          "vazamento": true,
          "obra": false,
          "qualidade": 22,
          "consumo_agua": 390
        }
      },
      {
        "id": 2,
        "nome": "Avenida Dom Pedro II",
        "bairro": "Vila Bastos",
        "lat": -23.641177693500946,
        "lng": -46.54059526195661,
        "status": {
          "vazamento": true,
          "obra": false,
          "qualidade": 78,
          "consumo_agua": 89
        }
      },
      {
        "id": 3,
        "nome": "Rua das Figueiras",
        "bairro": "Jardim",
        "lat": -23.645144053822314,
        "lng": -46.5421068042849,
        "status": {
          "vazamento": false,
          "obra": true,
          "qualidade": 18,
          "consumo_agua": 449
        }
      },
      {
        "id": 4,
        "nome": "Avenida Portugal",
        "bairro": "Vila Alzira",
        "lat": -23.66306824488266,
        "lng": -46.53321313312019,
        "status": {
          "vazamento": false,
          "obra": false,
          "qualidade": 48,
          "consumo_agua": 454
        }
      },
      {
        "id": 5,
        "nome": "Rua Carij\u00f3s",
        "bairro": "Vila Linda",
        "lat": -23.686756303704435,
        "lng": -46.52195377544774,
        "status": {
          "vazamento": false,
          "obra": true,
          "qualidade": 73,
          "consumo_agua": 259
        }
      },
      {
        "id": 6,
        "nome": "Avenida Firestone",
        "bairro": "Vila Am\u00e9rica",
        "lat": -23.673820822957676,
        "lng": -46.51771880428405,
        "status": {
          "vazamento": true,
          "obra": false,
          "qualidade": 69,
          "consumo_agua": 290
        }
      },
      {
        "id": 7,
        "nome": "Rua Orat\u00f3rio",
        "bairro": "Parque Orat\u00f3rio",
        "lat": -23.646185586712082,
        "lng": -46.52580015836169,
        "status": {
          "vazamento": true,
          "obra": true,
          "qualidade": 62,
          "consumo_agua": 445
        }
      },
      {
        "id": 8,
        "nome": "Rua Giovanni Battista Pirelli",
        "bairro": "Utinga",
        "lat": -23.66534763193009,
        "lng": -46.49779890428419,
        "status": {
          "vazamento": false,
          "obra": false,
          "qualidade": 68,
          "consumo_agua": 91
        }
      },
      {
        "id": 9,
        "nome": "Rua Catequese",
        "bairro": "Vila Assun\u00e7\u00e3o",
        "lat": -23.657100851514766,
        "lng": -46.53787033312041,
        "status": {
          "vazamento": false,
          "obra": false,
          "qualidade": 99,
          "consumo_agua": 74
        }
      },
      {
        "id": 10,
        "nome": "Rua Laura",
        "bairro": "Vila Palmares",
        "lat": -23.661725659351013,
        "lng": -46.534404319627804,
        "status": {
          "vazamento": false,
          "obra": true,
          "qualidade": 92,
          "consumo_agua": 208
        }
      },
      {
        "id": 11,
        "nome": "Rua Caminho do Pilar",
        "bairro": "Vila Camil\u00f3polis",
        "lat": -23.672958378723294,
        "lng": -46.54103709079151,
        "status": {
          "vazamento": false,
          "obra": false,
          "qualidade": 63,
          "consumo_agua": 357
        }
      },
      {
        "id": 12,
        "nome": "Rua das Hort\u00eancias",
        "bairro": "Parque das Na\u00e7\u00f5es",
        "lat": -23.683418730177046,
        "lng": -46.51671438894033,
        "status": {
          "vazamento": false,
          "obra": false,
          "qualidade": 70,
          "consumo_agua": 285
        }
      },
      {
        "id": 13,
        "nome": "Rua Alfredo Maluf",
        "bairro": "Vila Metal\u00fargica",
        "lat": -23.612510678764714,
        "lng": -46.574037775450144,
        "status": {
          "vazamento": false,
          "obra": false,
          "qualidade": 48,
          "consumo_agua": 120
        }
      },
      {
        "id": 14,
        "nome": "Rua Igarapava",
        "bairro": "Jardim Santo Andr\u00e9",
        "lat": -23.66696203168621,
        "lng": -46.55183836195601,
        "status": {
          "vazamento": false,
          "obra": true,
          "qualidade": 83,
          "consumo_agua": 357
        }
      },
      {
        "id": 15,
        "nome": "Rua das Mon\u00e7\u00f5es",
        "bairro": "Campestre",
        "lat": -23.65395317873637,
        "lng": -46.53731830428472,
        "status": {
          "vazamento": false,
          "obra": false,
          "qualidade": 74,
          "consumo_agua": 389
        }
      },
      {
        "id": 16,
        "nome": "Rua Ant\u00f4nio Cardoso",
        "bairro": "Vila Francisco Matarazzo",
        "lat": -23.661292931516286,
        "lng": -46.521383915261005,
        "status": {
          "vazamento": true,
          "obra": true,
          "qualidade": 14,
          "consumo_agua": 209
        }
      },
      {
        "id": 17,
        "nome": "Rua S\u00e3o Vicente",
        "bairro": "Vila Valpara\u00edso",
        "lat": -23.652706061390358,
        "lng": -46.53055757544888,
        "status": {
          "vazamento": true,
          "obra": false,
          "qualidade": 82,
          "consumo_agua": 377
        }
      },
      {
        "id": 18,
        "nome": "Rua Jos\u00e9 Bonif\u00e1cio",
        "bairro": "Vila Humait\u00e1",
        "lat": -23.6707556787248,
        "lng": -46.52849811962737,
        "status": {
          "vazamento": false,
          "obra": false,
          "qualidade": 59,
          "consumo_agua": 348
        }
      },
      {
        "id": 19,
        "nome": "Rua dos Vianas",
        "bairro": "S\u00edtio dos Vianas",
        "lat": -23.710710148329184,
        "lng": -46.514843023887686,
        "status": {
          "vazamento": true,
          "obra": false,
          "qualidade": 26,
          "consumo_agua": 161
        }
      },
      {
        "id": 20,
        "nome": "Rua dos Coqueiros",
        "bairro": "Jardim Las Vegas",
        "lat": -23.634991909814865,
        "lng": -46.54306661777767,
        "status": {
          "vazamento": true,
          "obra": false,
          "qualidade": 7,
          "consumo_agua": 72
        }
      }
    ]
  },
  {
    "timestamp": "2025-10-18T22:05:16.892733",
    "ruas": [
      {
        "id": 1,
        "nome": "Rua Coronel Oliveira Lima",
        "bairro": "Centro",
        "lat": -23.656440642397023,
        "lng": -46.52713433312033,
        "status": {
          "vazamento": false,
          "obra": false,
          "qualidade": 98,
          "consumo_agua": 112
        }
      },
      {
        "id": 2,
        "nome": "Avenida Dom Pedro II",
        "bairro": "Vila Bastos",
        "lat": -23.641177693500946,
        "lng": -46.54059526195661,
        "status": {
          "vazamento": false,
          "obra": false,
          "qualidade": 49,
          "consumo_agua": 359
        }
      },
      {
        "id": 3,
        "nome": "Rua das Figueiras",
        "bairro": "Jardim",
        "lat": -23.645144053822314,
        "lng": -46.5421068042849,
        "status": {
          "vazamento": false,
          "obra": true,
          "qualidade": 17,
          "consumo_agua": 435
        }
      },
      {
        "id": 4,
        "nome": "Avenida Portugal",
        "bairro": "Vila Alzira",
        "lat": -23.66306824488266,
        "lng": -46.53321313312019,
        "status": {
          "vazamento": false,
          "obra": true,
          "qualidade": 37,
          "consumo_agua": 102
        }
      },
      {
        "id": 5,
        "nome": "Rua Carij\u00f3s",
        "bairro": "Vila Linda",
        "lat": -23.686756303704435,
        "lng": -46.52195377544774,
        "status": {
          "vazamento": false,
          "obra": true,
          "qualidade": 70,
          "consumo_agua": 407
        }
      },
      {
        "id": 6,
        "nome": "Avenida Firestone",
        "bairro": "Vila Am\u00e9rica",
        "lat": -23.673820822957676,
        "lng": -46.51771880428405,
        "status": {
          "vazamento": true,
          "obra": true,
          "qualidade": 81,
          "consumo_agua": 389
        }
      },
      {
        "id": 7,
        "nome": "Rua Orat\u00f3rio",
        "bairro": "Parque Orat\u00f3rio",
        "lat": -23.646185586712082,
        "lng": -46.52580015836169,
        "status": {
          "vazamento": false,
          "obra": true,
          "qualidade": 15,
          "consumo_agua": 256
        }
      },
      {
        "id": 8,
        "nome": "Rua Giovanni Battista Pirelli",
        "bairro": "Utinga",
        "lat": -23.66534763193009,
        "lng": -46.49779890428419,
        "status": {
          "vazamento": true,
          "obra": false,
          "qualidade": 92,
          "consumo_agua": 456
        }
      },
      {
        "id": 9,
        "nome": "Rua Catequese",
        "bairro": "Vila Assun\u00e7\u00e3o",
        "lat": -23.657100851514766,
        "lng": -46.53787033312041,
        "status": {
          "vazamento": false,
          "obra": false,
          "qualidade": 93,
          "consumo_agua": 288
        }
      },
      {
        "id": 10,
        "nome": "Rua Laura",
        "bairro": "Vila Palmares",
        "lat": -23.661725659351013,
        "lng": -46.534404319627804,
        "status": {
          "vazamento": true,
          "obra": false,
          "qualidade": 13,
          "consumo_agua": 200
        }
      },
      {
        "id": 11,
        "nome": "Rua Caminho do Pilar",
        "bairro": "Vila Camil\u00f3polis",
        "lat": -23.672958378723294,
        "lng": -46.54103709079151,
        "status": {
          "vazamento": false,
          "obra": false,
          "qualidade": 52,
          "consumo_agua": 66
        }
      },
      {
        "id": 12,
        "nome": "Rua das Hort\u00eancias",
        "bairro": "Parque das Na\u00e7\u00f5es",
        "lat": -23.683418730177046,
        "lng": -46.51671438894033,
        "status": {
          "vazamento": true,
          "obra": false,
          "qualidade": 3,
          "consumo_agua": 462
        }
      },
      {
        "id": 13,
        "nome": "Rua Alfredo Maluf",
        "bairro": "Vila Metal\u00fargica",
        "lat": -23.612510678764714,
        "lng": -46.574037775450144,
        "status": {
          "vazamento": false,
          "obra": true,
          "qualidade": 81,
          "consumo_agua": 201
        }
      },
      {
        "id": 14,
        "nome": "Rua Igarapava",
        "bairro": "Jardim Santo Andr\u00e9",
        "lat": -23.66696203168621,
        "lng": -46.55183836195601,
        "status": {
          "vazamento": false,
          "obra": false,
          "qualidade": 63,
          "consumo_agua": 262
        }
      },
      {
        "id": 15,
        "nome": "Rua das Mon\u00e7\u00f5es",
        "bairro": "Campestre",
        "lat": -23.65395317873637,
        "lng": -46.53731830428472,
        "status": {
          "vazamento": true,
          "obra": false,
          "qualidade": 48,
          "consumo_agua": 303
        }
      },
      {
        "id": 16,
        "nome": "Rua Ant\u00f4nio Cardoso",
        "bairro": "Vila Francisco Matarazzo",
        "lat": -23.661292931516286,
        "lng": -46.521383915261005,
        "status": {
          "vazamento": false,
          "obra": true,
          "qualidade": 12,
          "consumo_agua": 331
        }
      },
      {
        "id": 17,
        "nome": "Rua S\u00e3o Vicente",
        "bairro": "Vila Valpara\u00edso",
        "lat": -23.652706061390358,
        "lng": -46.53055757544888,
        "status": {
          "vazamento": false,
          "obra": false,
          "qualidade": 58,
          "consumo_agua": 230
        }
      },
      {
        "id": 18,
        "nome": "Rua Jos\u00e9 Bonif\u00e1cio",
        "bairro": "Vila Humait\u00e1",
        "lat": -23.6707556787248,
        "lng": -46.52849811962737,
        "status": {
          "vazamento": true,
          "obra": true,
          "qualidade": 100,
          "consumo_agua": 481
        }
      },
      {
        "id": 19,
        "nome": "Rua dos Vianas",
        "bairro": "S\u00edtio dos Vianas",
        "lat": -23.710710148329184,
        "lng": -46.514843023887686,
        "status": {
          "vazamento": false,
          "obra": true,
          "qualidade": 42,
          "consumo_agua": 115
        }
      },
      {
        "id": 20,
        "nome": "Rua dos Coqueiros",
        "bairro": "Jardim Las Vegas",
        "lat": -23.634991909814865,
        "lng": -46.54306661777767,
        "status": {
          "vazamento": false,
          "obra": false,
          "qualidade": 0,
          "consumo_agua": 218
        }
      }
    ]
  },
  {
    "timestamp": "2025-10-18T22:06:16.945115",
    "ruas": [
      {
        "id": 1,
        "nome": "Rua Coronel Oliveira Lima",
        "bairro": "Centro",
        "lat": -23.656440642397023,
        "lng": -46.52713433312033,
        "status": {
          "vazamento": false,
          "obra": true,
          "qualidade": 55,
          "consumo_agua": 259
        }
      },
      {
        "id": 2,
        "nome": "Avenida Dom Pedro II",
        "bairro": "Vila Bastos",
        "lat": -23.641177693500946,
        "lng": -46.54059526195661,
        "status": {
          "vazamento": false,
          "obra": false,
          "qualidade": 42,
          "consumo_agua": 163
        }
      },
      {
        "id": 3,
        "nome": "Rua das Figueiras",
        "bairro": "Jardim",
        "lat": -23.645144053822314,
        "lng": -46.5421068042849,
        "status": {
          "vazamento": false,
          "obra": false,
          "qualidade": 62,
          "consumo_agua": 297
        }
      },
      {
        "id": 4,
        "nome": "Avenida Portugal",
        "bairro": "Vila Alzira",
        "lat": -23.66306824488266,
        "lng": -46.53321313312019,
        "status": {
          "vazamento": false,
          "obra": true,
          "qualidade": 4,
          "consumo_agua": 473
        }
      },
      {
        "id": 5,
        "nome": "Rua Carij\u00f3s",
        "bairro": "Vila Linda",
        "lat": -23.686756303704435,
        "lng": -46.52195377544774,
        "status": {
          "vazamento": false,
          "obra": false,
          "qualidade": 79,
          "consumo_agua": 146
        }
      },
      {
        "id": 6,
        "nome": "Avenida Firestone",
        "bairro": "Vila Am\u00e9rica",
        "lat": -23.673820822957676,
        "lng": -46.51771880428405,
        "status": {
          "vazamento": true,
          "obra": true,
          "qualidade": 4,
          "consumo_agua": 82
        }
      },
      {
        "id": 7,
        "nome": "Rua Orat\u00f3rio",
        "bairro": "Parque Orat\u00f3rio",
        "lat": -23.646185586712082,
        "lng": -46.52580015836169,
        "status": {
          "vazamento": true,
          "obra": true,
          "qualidade": 47,
          "consumo_agua": 217
        }
      },
      {
        "id": 8,
        "nome": "Rua Giovanni Battista Pirelli",
        "bairro": "Utinga",
        "lat": -23.66534763193009,
        "lng": -46.49779890428419,
        "status": {
          "vazamento": false,
          "obra": false,
          "qualidade": 40,
          "consumo_agua": 210
        }
      },
      {
        "id": 9,
        "nome": "Rua Catequese",
        "bairro": "Vila Assun\u00e7\u00e3o",
        "lat": -23.657100851514766,
        "lng": -46.53787033312041,
        "status": {
          "vazamento": true,
          "obra": true,
          "qualidade": 93,
          "consumo_agua": 100
        }
      },
      {
        "id": 10,
        "nome": "Rua Laura",
        "bairro": "Vila Palmares",
        "lat": -23.661725659351013,
        "lng": -46.534404319627804,
        "status": {
          "vazamento": false,
          "obra": false,
          "qualidade": 29,
          "consumo_agua": 141
        }
      },
      {
        "id": 11,
        "nome": "Rua Caminho do Pilar",
        "bairro": "Vila Camil\u00f3polis",
        "lat": -23.672958378723294,
        "lng": -46.54103709079151,
        "status": {
          "vazamento": false,
          "obra": false,
          "qualidade": 17,
          "consumo_agua": 68
        }
      },
      {
        "id": 12,
        "nome": "Rua das Hort\u00eancias",
        "bairro": "Parque das Na\u00e7\u00f5es",
        "lat": -23.683418730177046,
        "lng": -46.51671438894033,
        "status": {
          "vazamento": true,
          "obra": true,
          "qualidade": 100,
          "consumo_agua": 431
        }
      },
      {
        "id": 13,
        "nome": "Rua Alfredo Maluf",
        "bairro": "Vila Metal\u00fargica",
        "lat": -23.612510678764714,
        "lng": -46.574037775450144,
        "status": {
          "vazamento": true,
          "obra": false,
          "qualidade": 13,
          "consumo_agua": 496
        }
      },
      {
        "id": 14,
        "nome": "Rua Igarapava",
        "bairro": "Jardim Santo Andr\u00e9",
        "lat": -23.66696203168621,
        "lng": -46.55183836195601,
        "status": {
          "vazamento": true,
          "obra": true,
          "qualidade": 74,
          "consumo_agua": 339
        }
      },
      {
        "id": 15,
        "nome": "Rua das Mon\u00e7\u00f5es",
        "bairro": "Campestre",
        "lat": -23.65395317873637,
        "lng": -46.53731830428472,
        "status": {
          "vazamento": true,
          "obra": false,
          "qualidade": 85,
          "consumo_agua": 355
        }
      },
      {
        "id": 16,
        "nome": "Rua Ant\u00f4nio Cardoso",
        "bairro": "Vila Francisco Matarazzo",
        "lat": -23.661292931516286,
        "lng": -46.521383915261005,
        "status": {
          "vazamento": false,
          "obra": true,
          "qualidade": 0,
          "consumo_agua": 348
        }
      },
      {
        "id": 17,
        "nome": "Rua S\u00e3o Vicente",
        "bairro": "Vila Valpara\u00edso",
        "lat": -23.652706061390358,
        "lng": -46.53055757544888,
        "status": {
          "vazamento": true,
          "obra": false,
          "qualidade": 52,
          "consumo_agua": 127
        }
      },
      {
        "id": 18,
        "nome": "Rua Jos\u00e9 Bonif\u00e1cio",
        "bairro": "Vila Humait\u00e1",
        "lat": -23.6707556787248,
        "lng": -46.52849811962737,
        "status": {
          "vazamento": false,
          "obra": false,
          "qualidade": 44,
          "consumo_agua": 415
        }
      },
      {
        "id": 19,
        "nome": "Rua dos Vianas",
        "bairro": "S\u00edtio dos Vianas",
        "lat": -23.710710148329184,
        "lng": -46.514843023887686,
        "status": {
          "vazamento": true,
          "obra": true,
          "qualidade": 82,
          "consumo_agua": 155
        }
      },
      {
        "id": 20,
        "nome": "Rua dos Coqueiros",
        "bairro": "Jardim Las Vegas",
        "lat": -23.634991909814865,
        "lng": -46.54306661777767,
        "status": {
          "vazamento": true,
          "obra": false,
          "qualidade": 29,
          "consumo_agua": 477
        }
      }
    ]
  },
  {
    "timestamp": "2025-10-19T19:51:00.809934",
    "ruas": [
      {
        "id": 1,
        "nome": "Rua Coronel Oliveira Lima",
        "bairro": "Centro",
        "lat": -23.656440642397023,
        "lng": -46.52713433312033,
        "status": {
          "vazamento": true,
          "obra": true,
          "qualidade": 14,
          "consumo_agua": 485
        }
      },
      {
        "id": 2,
        "nome": "Avenida Dom Pedro II",
        "bairro": "Vila Bastos",
        "lat": -23.641177693500946,
        "lng": -46.54059526195661,
        "status": {
          "vazamento": false,
          "obra": false,
          "qualidade": 1,
          "consumo_agua": 64
        }
      },
      {
        "id": 3,
        "nome": "Rua das Figueiras",
        "bairro": "Jardim",
        "lat": -23.645144053822314,
        "lng": -46.5421068042849,
        "status": {
          "vazamento": false,
          "obra": false,
          "qualidade": 77,
          "consumo_agua": 361
        }
      },
      {
        "id": 4,
        "nome": "Avenida Portugal",
        "bairro": "Vila Alzira",
        "lat": -23.66306824488266,
        "lng": -46.53321313312019,
        "status": {
          "vazamento": true,
          "obra": true,
          "qualidade": 61,
          "consumo_agua": 353
        }
      },
      {
        "id": 5,
        "nome": "Rua Carij\u00f3s",
        "bairro": "Vila Linda",
        "lat": -23.686756303704435,
        "lng": -46.52195377544774,
        "status": {
          "vazamento": false,
          "obra": true,
          "qualidade": 13,
          "consumo_agua": 446
        }
      },
      {
        "id": 6,
        "nome": "Avenida Firestone",
        "bairro": "Vila Am\u00e9rica",
        "lat": -23.673820822957676,
        "lng": -46.51771880428405,
        "status": {
          "vazamento": true,
          "obra": false,
          "qualidade": 43,
          "consumo_agua": 403
        }
      },
      {
        "id": 7,
        "nome": "Rua Orat\u00f3rio",
        "bairro": "Parque Orat\u00f3rio",
        "lat": -23.646185586712082,
        "lng": -46.52580015836169,
        "status": {
          "vazamento": true,
          "obra": true,
          "qualidade": 95,
          "consumo_agua": 438
        }
      },
      {
        "id": 8,
        "nome": "Rua Giovanni Battista Pirelli",
        "bairro": "Utinga",
        "lat": -23.66534763193009,
        "lng": -46.49779890428419,
        "status": {
          "vazamento": false,
          "obra": false,
          "qualidade": 30,
          "consumo_agua": 279
        }
      },
      {
        "id": 9,
        "nome": "Rua Catequese",
        "bairro": "Vila Assun\u00e7\u00e3o",
        "lat": -23.657100851514766,
        "lng": -46.53787033312041,
        "status": {
          "vazamento": false,
          "obra": true,
          "qualidade": 47,
          "consumo_agua": 499
        }
      },
      {
        "id": 10,
        "nome": "Rua Laura",
        "bairro": "Vila Palmares",
        "lat": -23.661725659351013,
        "lng": -46.534404319627804,
        "status": {
          "vazamento": false,
          "obra": false,
          "qualidade": 22,
          "consumo_agua": 199
        }
      },
      {
        "id": 11,
        "nome": "Rua Caminho do Pilar",
        "bairro": "Vila Camil\u00f3polis",
        "lat": -23.672958378723294,
        "lng": -46.54103709079151,
        "status": {
          "vazamento": true,
          "obra": false,
          "qualidade": 56,
          "consumo_agua": 432
        }
      },
      {
        "id": 12,
        "nome": "Rua das Hort\u00eancias",
        "bairro": "Parque das Na\u00e7\u00f5es",
        "lat": -23.683418730177046,
        "lng": -46.51671438894033,
        "status": {
          "vazamento": true,
          "obra": false,
          "qualidade": 8,
          "consumo_agua": 87
        }
      },
      {
        "id": 13,
        "nome": "Rua Alfredo Maluf",
        "bairro": "Vila Metal\u00fargica",
        "lat": -23.612510678764714,
        "lng": -46.574037775450144,
        "status": {
          "vazamento": true,
          "obra": false,
          "qualidade": 26,
          "consumo_agua": 279
        }
      },
      {
        "id": 14,
        "nome": "Rua Igarapava",
        "bairro": "Jardim Santo Andr\u00e9",
        "lat": -23.66696203168621,
        "lng": -46.55183836195601,
        "status": {
          "vazamento": true,
          "obra": true,
          "qualidade": 15,
          "consumo_agua": 409
        }
      },
      {
        "id": 15,
        "nome": "Rua das Mon\u00e7\u00f5es",
        "bairro": "Campestre",
        "lat": -23.65395317873637,
        "lng": -46.53731830428472,
        "status": {
          "vazamento": true,
          "obra": false,
          "qualidade": 32,
          "consumo_agua": 267
        }
      },
      {
        "id": 16,
        "nome": "Rua Ant\u00f4nio Cardoso",
        "bairro": "Vila Francisco Matarazzo",
        "lat": -23.661292931516286,
        "lng": -46.521383915261005,
        "status": {
          "vazamento": true,
          "obra": true,
          "qualidade": 26,
          "consumo_agua": 443
        }
      },
      {
        "id": 17,
        "nome": "Rua S\u00e3o Vicente",
        "bairro": "Vila Valpara\u00edso",
        "lat": -23.652706061390358,
        "lng": -46.53055757544888,
        "status": {
          "vazamento": true,
          "obra": false,
          "qualidade": 8,
          "consumo_agua": 311
        }
      },
      {
        "id": 18,
        "nome": "Rua Jos\u00e9 Bonif\u00e1cio",
        "bairro": "Vila Humait\u00e1",
        "lat": -23.6707556787248,
        "lng": -46.52849811962737,
        "status": {
          "vazamento": true,
          "obra": true,
          "qualidade": 65,
          "consumo_agua": 59
        }
      },
      {
        "id": 19,
        "nome": "Rua dos Vianas",
        "bairro": "S\u00edtio dos Vianas",
        "lat": -23.710710148329184,
        "lng": -46.514843023887686,
        "status": {
          "vazamento": false,
          "obra": false,
          "qualidade": 43,
          "consumo_agua": 413
        }
      },
      {
        "id": 20,
        "nome": "Rua dos Coqueiros",
        "bairro": "Jardim Las Vegas",
        "lat": -23.634991909814865,
        "lng": -46.54306661777767,
        "status": {
          "vazamento": false,
          "obra": true,
          "qualidade": 71,
          "consumo_agua": 301
        }
      }
    ]
  },
  {
    "timestamp": "2025-10-19T19:51:02.164127",
    "ruas": [
      {
        "id": 1,
        "nome": "Rua Coronel Oliveira Lima",
        "bairro": "Centro",
        "lat": -23.656440642397023,
        "lng": -46.52713433312033,
        "status": {
          "vazamento": true,
          "obra": true,
          "qualidade": 76,
          "consumo_agua": 500
        }
      },
      {
        "id": 2,
        "nome": "Avenida Dom Pedro II",
        "bairro": "Vila Bastos",
        "lat": -23.641177693500946,
        "lng": -46.54059526195661,
        "status": {
          "vazamento": false,
          "obra": true,
          "qualidade": 75,
          "consumo_agua": 50
        }
      },
      {
        "id": 3,
        "nome": "Rua das Figueiras",
        "bairro": "Jardim",
        "lat": -23.645144053822314,
        "lng": -46.5421068042849,
        "status": {
          "vazamento": false,
          "obra": false,
          "qualidade": 7,
          "consumo_agua": 365
        }
      },
      {
        "id": 4,
        "nome": "Avenida Portugal",
        "bairro": "Vila Alzira",
        "lat": -23.66306824488266,
        "lng": -46.53321313312019,
        "status": {
          "vazamento": true,
          "obra": false,
          "qualidade": 75,
          "consumo_agua": 344
        }
      },
      {
        "id": 5,
        "nome": "Rua Carij\u00f3s",
        "bairro": "Vila Linda",
        "lat": -23.686756303704435,
        "lng": -46.52195377544774,
        "status": {
          "vazamento": true,
          "obra": false,
          "qualidade": 2,
          "consumo_agua": 426
        }
      },
      {
        "id": 6,
        "nome": "Avenida Firestone",
        "bairro": "Vila Am\u00e9rica",
        "lat": -23.673820822957676,
        "lng": -46.51771880428405,
        "status": {
          "vazamento": true,
          "obra": true,
          "qualidade": 21,
          "consumo_agua": 417
        }
      },
      {
        "id": 7,
        "nome": "Rua Orat\u00f3rio",
        "bairro": "Parque Orat\u00f3rio",
        "lat": -23.646185586712082,
        "lng": -46.52580015836169,
        "status": {
          "vazamento": true,
          "obra": false,
          "qualidade": 72,
          "consumo_agua": 449
        }
      },
      {
        "id": 8,
        "nome": "Rua Giovanni Battista Pirelli",
        "bairro": "Utinga",
        "lat": -23.66534763193009,
        "lng": -46.49779890428419,
        "status": {
          "vazamento": true,
          "obra": false,
          "qualidade": 91,
          "consumo_agua": 288
        }
      },
      {
        "id": 9,
        "nome": "Rua Catequese",
        "bairro": "Vila Assun\u00e7\u00e3o",
        "lat": -23.657100851514766,
        "lng": -46.53787033312041,
        "status": {
          "vazamento": true,
          "obra": false,
          "qualidade": 74,
          "consumo_agua": 482
        }
      },
      {
        "id": 10,
        "nome": "Rua Laura",
        "bairro": "Vila Palmares",
        "lat": -23.661725659351013,
        "lng": -46.534404319627804,
        "status": {
          "vazamento": false,
          "obra": false,
          "qualidade": 19,
          "consumo_agua": 205
        }
      },
      {
        "id": 11,
        "nome": "Rua Caminho do Pilar",
        "bairro": "Vila Camil\u00f3polis",
        "lat": -23.672958378723294,
        "lng": -46.54103709079151,
        "status": {
          "vazamento": true,
          "obra": false,
          "qualidade": 27,
          "consumo_agua": 421
        }
      },
      {
        "id": 12,
        "nome": "Rua das Hort\u00eancias",
        "bairro": "Parque das Na\u00e7\u00f5es",
        "lat": -23.683418730177046,
        "lng": -46.51671438894033,
        "status": {
          "vazamento": true,
          "obra": false,
          "qualidade": 1,
          "consumo_agua": 80
        }
      },
      {
        "id": 13,
        "nome": "Rua Alfredo Maluf",
        "bairro": "Vila Metal\u00fargica",
        "lat": -23.612510678764714,
        "lng": -46.574037775450144,
        "status": {
          "vazamento": false,
          "obra": true,
          "qualidade": 78,
          "consumo_agua": 290
        }
      },
      {
        "id": 14,
        "nome": "Rua Igarapava",
        "bairro": "Jardim Santo Andr\u00e9",
        "lat": -23.66696203168621,
        "lng": -46.55183836195601,
        "status": {
          "vazamento": false,
          "obra": false,
          "qualidade": 8,
          "consumo_agua": 409
        }
      },
      {
        "id": 15,
        "nome": "Rua das Mon\u00e7\u00f5es",
        "bairro": "Campestre",
        "lat": -23.65395317873637,
        "lng": -46.53731830428472,
        "status": {
          "vazamento": false,
          "obra": false,
          "qualidade": 61,
          "consumo_agua": 260
        }
      },
      {
        "id": 16,
        "nome": "Rua Ant\u00f4nio Cardoso",
        "bairro": "Vila Francisco Matarazzo",
        "lat": -23.661292931516286,
        "lng": -46.521383915261005,
        "status": {
          "vazamento": false,
          "obra": false,
          "qualidade": 77,
          "consumo_agua": 444
        }
      },
      {
        "id": 17,
        "nome": "Rua S\u00e3o Vicente",
        "bairro": "Vila Valpara\u00edso",
        "lat": -23.652706061390358,
        "lng": -46.53055757544888,
        "status": {
          "vazamento": true,
          "obra": false,
          "qualidade": 47,
          "consumo_agua": 308
        }
      },
      {
        "id": 18,
        "nome": "Rua Jos\u00e9 Bonif\u00e1cio",
        "bairro": "Vila Humait\u00e1",
        "lat": -23.6707556787248,
        "lng": -46.52849811962737,
        "status": {
          "vazamento": false,
          "obra": false,
          "qualidade": 5,
          "consumo_agua": 76
        }
      },
      {
        "id": 19,
        "nome": "Rua dos Vianas",
        "bairro": "S\u00edtio dos Vianas",
        "lat": -23.710710148329184,
        "lng": -46.514843023887686,
        "status": {
          "vazamento": false,
          "obra": false,
          "qualidade": 24,
          "consumo_agua": 416
        }
      },
      {
        "id": 20,
        "nome": "Rua dos Coqueiros",
        "bairro": "Jardim Las Vegas",
        "lat": -23.634991909814865,
        "lng": -46.54306661777767,
        "status": {
          "vazamento": true,
          "obra": false,
          "qualidade": 82,
          "consumo_agua": 301
        }
      }
    ]
  },
  {
    "timestamp": "2025-10-19T19:52:00.880692",
    "ruas": [
      {
        "id": 1,
        "nome": "Rua Coronel Oliveira Lima",
        "bairro": "Centro",
        "lat": -23.656440642397023,
        "lng": -46.52713433312033,
        "status": {
          "vazamento": false,
          "obra": false,
          "qualidade": 89,
          "consumo_agua": 489
        }
      },
      {
        "id": 2,
        "nome": "Avenida Dom Pedro II",
        "bairro": "Vila Bastos",
        "lat": -23.641177693500946,
        "lng": -46.54059526195661,
        "status": {
          "vazamento": false,
          "obra": true,
          "qualidade": 39,
          "consumo_agua": 50
        }
      },
      {
        "id": 3,
        "nome": "Rua das Figueiras",
        "bairro": "Jardim",
        "lat": -23.645144053822314,
        "lng": -46.5421068042849,
        "status": {
          "vazamento": false,
          "obra": false,
          "qualidade": 14,
          "consumo_agua": 355
        }
      },
      {
        "id": 4,
        "nome": "Avenida Portugal",
        "bairro": "Vila Alzira",
        "lat": -23.66306824488266,
        "lng": -46.53321313312019,
        "status": {
          "vazamento": false,
          "obra": false,
          "qualidade": 62,
          "consumo_agua": 347
        }
      },
      {
        "id": 5,
        "nome": "Rua Carij\u00f3s",
        "bairro": "Vila Linda",
        "lat": -23.686756303704435,
        "lng": -46.52195377544774,
        "status": {
          "vazamento": true,
          "obra": true,
          "qualidade": 28,
          "consumo_agua": 415
        }
      },
      {
        "id": 6,
        "nome": "Avenida Firestone",
        "bairro": "Vila Am\u00e9rica",
        "lat": -23.673820822957676,
        "lng": -46.51771880428405,
        "status": {
          "vazamento": false,
          "obra": true,
          "qualidade": 76,
          "consumo_agua": 429
        }
      },
      {
        "id": 7,
        "nome": "Rua Orat\u00f3rio",
        "bairro": "Parque Orat\u00f3rio",
        "lat": -23.646185586712082,
        "lng": -46.52580015836169,
        "status": {
          "vazamento": true,
          "obra": false,
          "qualidade": 32,
          "consumo_agua": 445
        }
      },
      {
        "id": 8,
        "nome": "Rua Giovanni Battista Pirelli",
        "bairro": "Utinga",
        "lat": -23.66534763193009,
        "lng": -46.49779890428419,
        "status": {
          "vazamento": true,
          "obra": false,
          "qualidade": 10,
          "consumo_agua": 308
        }
      },
      {
        "id": 9,
        "nome": "Rua Catequese",
        "bairro": "Vila Assun\u00e7\u00e3o",
        "lat": -23.657100851514766,
        "lng": -46.53787033312041,
        "status": {
          "vazamento": true,
          "obra": false,
          "qualidade": 45,
          "consumo_agua": 492
        }
      },
      {
        "id": 10,
        "nome": "Rua Laura",
        "bairro": "Vila Palmares",
        "lat": -23.661725659351013,
        "lng": -46.534404319627804,
        "status": {
          "vazamento": true,
          "obra": false,
          "qualidade": 5,
          "consumo_agua": 197
        }
      },
      {
        "id": 11,
        "nome": "Rua Caminho do Pilar",
        "bairro": "Vila Camil\u00f3polis",
        "lat": -23.672958378723294,
        "lng": -46.54103709079151,
        "status": {
          "vazamento": false,
          "obra": false,
          "qualidade": 61,
          "consumo_agua": 418
        }
      },
      {
        "id": 12,
        "nome": "Rua das Hort\u00eancias",
        "bairro": "Parque das Na\u00e7\u00f5es",
        "lat": -23.683418730177046,
        "lng": -46.51671438894033,
        "status": {
          "vazamento": true,
          "obra": true,
          "qualidade": 82,
          "consumo_agua": 86
        }
      },
      {
        "id": 13,
        "nome": "Rua Alfredo Maluf",
        "bairro": "Vila Metal\u00fargica",
        "lat": -23.612510678764714,
        "lng": -46.574037775450144,
        "status": {
          "vazamento": false,
          "obra": false,
          "qualidade": 12,
          "consumo_agua": 290
        }
      },
      {
        "id": 14,
        "nome": "Rua Igarapava",
        "bairro": "Jardim Santo Andr\u00e9",
        "lat": -23.66696203168621,
        "lng": -46.55183836195601,
        "status": {
          "vazamento": true,
          "obra": true,
          "qualidade": 35,
          "consumo_agua": 403
        }
      },
      {
        "id": 15,
        "nome": "Rua das Mon\u00e7\u00f5es",
        "bairro": "Campestre",
        "lat": -23.65395317873637,
        "lng": -46.53731830428472,
        "status": {
          "vazamento": true,
          "obra": false,
          "qualidade": 57,
          "consumo_agua": 271
        }
      },
      {
        "id": 16,
        "nome": "Rua Ant\u00f4nio Cardoso",
        "bairro": "Vila Francisco Matarazzo",
        "lat": -23.661292931516286,
        "lng": -46.521383915261005,
        "status": {
          "vazamento": false,
          "obra": false,
          "qualidade": 14,
          "consumo_agua": 434
        }
      },
      {
        "id": 17,
        "nome": "Rua S\u00e3o Vicente",
        "bairro": "Vila Valpara\u00edso",
        "lat": -23.652706061390358,
        "lng": -46.53055757544888,
        "status": {
          "vazamento": false,
          "obra": false,
          "qualidade": 37,
          "consumo_agua": 306
        }
      },
      {
        "id": 18,
        "nome": "Rua Jos\u00e9 Bonif\u00e1cio",
        "bairro": "Vila Humait\u00e1",
        "lat": -23.6707556787248,
        "lng": -46.52849811962737,
        "status": {
          "vazamento": true,
          "obra": false,
          "qualidade": 5,
          "consumo_agua": 86
        }
      },
      {
        "id": 19,
        "nome": "Rua dos Vianas",
        "bairro": "S\u00edtio dos Vianas",
        "lat": -23.710710148329184,
        "lng": -46.514843023887686,
        "status": {
          "vazamento": false,
          "obra": false,
          "qualidade": 7,
          "consumo_agua": 435
        }
      },
      {
        "id": 20,
        "nome": "Rua dos Coqueiros",
        "bairro": "Jardim Las Vegas",
        "lat": -23.634991909814865,
        "lng": -46.54306661777767,
        "status": {
          "vazamento": false,
          "obra": false,
          "qualidade": 44,
          "consumo_agua": 285
        }
      }
    ]
  },
  {
    "timestamp": "2025-10-19T19:52:02.237514",
    "ruas": [
      {
        "id": 1,
        "nome": "Rua Coronel Oliveira Lima",
        "bairro": "Centro",
        "lat": -23.656440642397023,
        "lng": -46.52713433312033,
        "status": {
          "vazamento": true,
          "obra": false,
          "qualidade": 27,
          "consumo_agua": 484
        }
      },
      {
        "id": 2,
        "nome": "Avenida Dom Pedro II",
        "bairro": "Vila Bastos",
        "lat": -23.641177693500946,
        "lng": -46.54059526195661,
        "status": {
          "vazamento": false,
          "obra": false,
          "qualidade": 51,
          "consumo_agua": 50
        }
      },
      {
        "id": 3,
        "nome": "Rua das Figueiras",
        "bairro": "Jardim",
        "lat": -23.645144053822314,
        "lng": -46.5421068042849,
        "status": {
          "vazamento": false,
          "obra": true,
          "qualidade": 90,
          "consumo_agua": 340
        }
      },
      {
        "id": 4,
        "nome": "Avenida Portugal",
        "bairro": "Vila Alzira",
        "lat": -23.66306824488266,
        "lng": -46.53321313312019,
        "status": {
          "vazamento": false,
          "obra": false,
          "qualidade": 78,
          "consumo_agua": 367
        }
      },
      {
        "id": 5,
        "nome": "Rua Carij\u00f3s",
        "bairro": "Vila Linda",
        "lat": -23.686756303704435,
        "lng": -46.52195377544774,
        "status": {
          "vazamento": true,
          "obra": true,
          "qualidade": 18,
          "consumo_agua": 433
        }
      },
      {
        "id": 6,
        "nome": "Avenida Firestone",
        "bairro": "Vila Am\u00e9rica",
        "lat": -23.673820822957676,
        "lng": -46.51771880428405,
        "status": {
          "vazamento": true,
          "obra": false,
          "qualidade": 12,
          "consumo_agua": 446
        }
      },
      {
        "id": 7,
        "nome": "Rua Orat\u00f3rio",
        "bairro": "Parque Orat\u00f3rio",
        "lat": -23.646185586712082,
        "lng": -46.52580015836169,
        "status": {
          "vazamento": true,
          "obra": false,
          "qualidade": 99,
          "consumo_agua": 454
        }
      },
      {
        "id": 8,
        "nome": "Rua Giovanni Battista Pirelli",
        "bairro": "Utinga",
        "lat": -23.66534763193009,
        "lng": -46.49779890428419,
        "status": {
          "vazamento": false,
          "obra": true,
          "qualidade": 55,
          "consumo_agua": 324
        }
      },
      {
        "id": 9,
        "nome": "Rua Catequese",
        "bairro": "Vila Assun\u00e7\u00e3o",
        "lat": -23.657100851514766,
        "lng": -46.53787033312041,
        "status": {
          "vazamento": true,
          "obra": true,
          "qualidade": 69,
          "consumo_agua": 487
        }
      },
      {
        "id": 10,
        "nome": "Rua Laura",
        "bairro": "Vila Palmares",
        "lat": -23.661725659351013,
        "lng": -46.534404319627804,
        "status": {
          "vazamento": true,
          "obra": true,
          "qualidade": 16,
          "consumo_agua": 178
        }
      },
      {
        "id": 11,
        "nome": "Rua Caminho do Pilar",
        "bairro": "Vila Camil\u00f3polis",
        "lat": -23.672958378723294,
        "lng": -46.54103709079151,
        "status": {
          "vazamento": true,
          "obra": true,
          "qualidade": 82,
          "consumo_agua": 417
        }
      },
      {
        "id": 12,
        "nome": "Rua das Hort\u00eancias",
        "bairro": "Parque das Na\u00e7\u00f5es",
        "lat": -23.683418730177046,
        "lng": -46.51671438894033,
        "status": {
          "vazamento": true,
          "obra": false,
          "qualidade": 84,
          "consumo_agua": 75
        }
      },
      {
        "id": 13,
        "nome": "Rua Alfredo Maluf",
        "bairro": "Vila Metal\u00fargica",
        "lat": -23.612510678764714,
        "lng": -46.574037775450144,
        "status": {
          "vazamento": false,
          "obra": false,
          "qualidade": 72,
          "consumo_agua": 291
        }
      },
      {
        "id": 14,
        "nome": "Rua Igarapava",
        "bairro": "Jardim Santo Andr\u00e9",
        "lat": -23.66696203168621,
        "lng": -46.55183836195601,
        "status": {
          "vazamento": false,
          "obra": false,
          "qualidade": 94,
          "consumo_agua": 390
        }
      },
      {
        "id": 15,
        "nome": "Rua das Mon\u00e7\u00f5es",
        "bairro": "Campestre",
        "lat": -23.65395317873637,
        "lng": -46.53731830428472,
        "status": {
          "vazamento": false,
          "obra": true,
          "qualidade": 97,
          "consumo_agua": 262
        }
      },
      {
        "id": 16,
        "nome": "Rua Ant\u00f4nio Cardoso",
        "bairro": "Vila Francisco Matarazzo",
        "lat": -23.661292931516286,
        "lng": -46.521383915261005,
        "status": {
          "vazamento": true,
          "obra": true,
          "qualidade": 30,
          "consumo_agua": 424
        }
      },
      {
        "id": 17,
        "nome": "Rua S\u00e3o Vicente",
        "bairro": "Vila Valpara\u00edso",
        "lat": -23.652706061390358,
        "lng": -46.53055757544888,
        "status": {
          "vazamento": false,
          "obra": true,
          "qualidade": 92,
          "consumo_agua": 306
        }
      },
      {
        "id": 18,
        "nome": "Rua Jos\u00e9 Bonif\u00e1cio",
        "bairro": "Vila Humait\u00e1",
        "lat": -23.6707556787248,
        "lng": -46.52849811962737,
        "status": {
          "vazamento": true,
          "obra": false,
          "qualidade": 44,
          "consumo_agua": 70
        }
      },
      {
        "id": 19,
        "nome": "Rua dos Vianas",
        "bairro": "S\u00edtio dos Vianas",
        "lat": -23.710710148329184,
        "lng": -46.514843023887686,
        "status": {
          "vazamento": false,
          "obra": false,
          "qualidade": 89,
          "consumo_agua": 417
        }
      },
      {
        "id": 20,
        "nome": "Rua dos Coqueiros",
        "bairro": "Jardim Las Vegas",
        "lat": -23.634991909814865,
        "lng": -46.54306661777767,
        "status": {
          "vazamento": true,
          "obra": true,
          "qualidade": 72,
          "consumo_agua": 265
        }
      }
    ]
  },
  {
    "timestamp": "2025-10-19T19:53:00.963873",
    "ruas": [
      {
        "id": 1,
        "nome": "Rua Coronel Oliveira Lima",
        "bairro": "Centro",
        "lat": -23.656440642397023,
        "lng": -46.52713433312033,
        "status": {
          "vazamento": false,
          "obra": true,
          "qualidade": 15,
          "consumo_agua": 484
        }
      },
      {
        "id": 2,
        "nome": "Avenida Dom Pedro II",
        "bairro": "Vila Bastos",
        "lat": -23.641177693500946,
        "lng": -46.54059526195661,
        "status": {
          "vazamento": false,
          "obra": false,
          "qualidade": 19,
          "consumo_agua": 50
        }
      },
      {
        "id": 3,
        "nome": "Rua das Figueiras",
        "bairro": "Jardim",
        "lat": -23.645144053822314,
        "lng": -46.5421068042849,
        "status": {
          "vazamento": true,
          "obra": false,
          "qualidade": 18,
          "consumo_agua": 329
        }
      },
      {
        "id": 4,
        "nome": "Avenida Portugal",
        "bairro": "Vila Alzira",
        "lat": -23.66306824488266,
        "lng": -46.53321313312019,
        "status": {
          "vazamento": false,
          "obra": true,
          "qualidade": 30,
          "consumo_agua": 375
        }
      },
      {
        "id": 5,
        "nome": "Rua Carij\u00f3s",
        "bairro": "Vila Linda",
        "lat": -23.686756303704435,
        "lng": -46.52195377544774,
        "status": {
          "vazamento": false,
          "obra": false,
          "qualidade": 70,
          "consumo_agua": 428
        }
      },
      {
        "id": 6,
        "nome": "Avenida Firestone",
        "bairro": "Vila Am\u00e9rica",
        "lat": -23.673820822957676,
        "lng": -46.51771880428405,
        "status": {
          "vazamento": true,
          "obra": true,
          "qualidade": 20,
          "consumo_agua": 439
        }
      },
      {
        "id": 7,
        "nome": "Rua Orat\u00f3rio",
        "bairro": "Parque Orat\u00f3rio",
        "lat": -23.646185586712082,
        "lng": -46.52580015836169,
        "status": {
          "vazamento": true,
          "obra": false,
          "qualidade": 93,
          "consumo_agua": 436
        }
      },
      {
        "id": 8,
        "nome": "Rua Giovanni Battista Pirelli",
        "bairro": "Utinga",
        "lat": -23.66534763193009,
        "lng": -46.49779890428419,
        "status": {
          "vazamento": false,
          "obra": false,
          "qualidade": 83,
          "consumo_agua": 307
        }
      },
      {
        "id": 9,
        "nome": "Rua Catequese",
        "bairro": "Vila Assun\u00e7\u00e3o",
        "lat": -23.657100851514766,
        "lng": -46.53787033312041,
        "status": {
          "vazamento": true,
          "obra": false,
          "qualidade": 72,
          "consumo_agua": 491
        }
      },
      {
        "id": 10,
        "nome": "Rua Laura",
        "bairro": "Vila Palmares",
        "lat": -23.661725659351013,
        "lng": -46.534404319627804,
        "status": {
          "vazamento": true,
          "obra": true,
          "qualidade": 14,
          "consumo_agua": 188
        }
      },
      {
        "id": 11,
        "nome": "Rua Caminho do Pilar",
        "bairro": "Vila Camil\u00f3polis",
        "lat": -23.672958378723294,
        "lng": -46.54103709079151,
        "status": {
          "vazamento": false,
          "obra": true,
          "qualidade": 59,
          "consumo_agua": 407
        }
      },
      {
        "id": 12,
        "nome": "Rua das Hort\u00eancias",
        "bairro": "Parque das Na\u00e7\u00f5es",
        "lat": -23.683418730177046,
        "lng": -46.51671438894033,
        "status": {
          "vazamento": false,
          "obra": false,
          "qualidade": 70,
          "consumo_agua": 95
        }
      },
      {
        "id": 13,
        "nome": "Rua Alfredo Maluf",
        "bairro": "Vila Metal\u00fargica",
        "lat": -23.612510678764714,
        "lng": -46.574037775450144,
        "status": {
          "vazamento": false,
          "obra": false,
          "qualidade": 11,
          "consumo_agua": 290
        }
      },
      {
        "id": 14,
        "nome": "Rua Igarapava",
        "bairro": "Jardim Santo Andr\u00e9",
        "lat": -23.66696203168621,
        "lng": -46.55183836195601,
        "status": {
          "vazamento": true,
          "obra": true,
          "qualidade": 73,
          "consumo_agua": 387
        }
      },
      {
        "id": 15,
        "nome": "Rua das Mon\u00e7\u00f5es",
        "bairro": "Campestre",
        "lat": -23.65395317873637,
        "lng": -46.53731830428472,
        "status": {
          "vazamento": true,
          "obra": true,
          "qualidade": 7,
          "consumo_agua": 252
        }
      },
      {
        "id": 16,
        "nome": "Rua Ant\u00f4nio Cardoso",
        "bairro": "Vila Francisco Matarazzo",
        "lat": -23.661292931516286,
        "lng": -46.521383915261005,
        "status": {
          "vazamento": false,
          "obra": false,
          "qualidade": 52,
          "consumo_agua": 429
        }
      },
      {
        "id": 17,
        "nome": "Rua S\u00e3o Vicente",
        "bairro": "Vila Valpara\u00edso",
        "lat": -23.652706061390358,
        "lng": -46.53055757544888,
        "status": {
          "vazamento": true,
          "obra": true,
          "qualidade": 60,
          "consumo_agua": 321
        }
      },
      {
        "id": 18,
        "nome": "Rua Jos\u00e9 Bonif\u00e1cio",
        "bairro": "Vila Humait\u00e1",
        "lat": -23.6707556787248,
        "lng": -46.52849811962737,
        "status": {
          "vazamento": false,
          "obra": true,
          "qualidade": 23,
          "consumo_agua": 86
        }
      },
      {
        "id": 19,
        "nome": "Rua dos Vianas",
        "bairro": "S\u00edtio dos Vianas",
        "lat": -23.710710148329184,
        "lng": -46.514843023887686,
        "status": {
          "vazamento": false,
          "obra": false,
          "qualidade": 57,
          "consumo_agua": 416
        }
      },
      {
        "id": 20,
        "nome": "Rua dos Coqueiros",
        "bairro": "Jardim Las Vegas",
        "lat": -23.634991909814865,
        "lng": -46.54306661777767,
        "status": {
          "vazamento": true,
          "obra": true,
          "qualidade": 84,
          "consumo_agua": 258
        }
      }
    ]
  },
  {
    "timestamp": "2025-10-19T19:53:02.459172",
    "ruas": [
      {
        "id": 1,
        "nome": "Rua Coronel Oliveira Lima",
        "bairro": "Centro",
        "lat": -23.656440642397023,
        "lng": -46.52713433312033,
        "status": {
          "vazamento": false,
          "obra": false,
          "qualidade": 95,
          "consumo_agua": 496
        }
      },
      {
        "id": 2,
        "nome": "Avenida Dom Pedro II",
        "bairro": "Vila Bastos",
        "lat": -23.641177693500946,
        "lng": -46.54059526195661,
        "status": {
          "vazamento": false,
          "obra": true,
          "qualidade": 20,
          "consumo_agua": 66
        }
      },
      {
        "id": 3,
        "nome": "Rua das Figueiras",
        "bairro": "Jardim",
        "lat": -23.645144053822314,
        "lng": -46.5421068042849,
        "status": {
          "vazamento": false,
          "obra": true,
          "qualidade": 58,
          "consumo_agua": 309
        }
      },
      {
        "id": 4,
        "nome": "Avenida Portugal",
        "bairro": "Vila Alzira",
        "lat": -23.66306824488266,
        "lng": -46.53321313312019,
        "status": {
          "vazamento": true,
          "obra": true,
          "qualidade": 77,
          "consumo_agua": 395
        }
      },
      {
        "id": 5,
        "nome": "Rua Carij\u00f3s",
        "bairro": "Vila Linda",
        "lat": -23.686756303704435,
        "lng": -46.52195377544774,
        "status": {
          "vazamento": false,
          "obra": false,
          "qualidade": 74,
          "consumo_agua": 443
        }
      },
      {
        "id": 6,
        "nome": "Avenida Firestone",
        "bairro": "Vila Am\u00e9rica",
        "lat": -23.673820822957676,
        "lng": -46.51771880428405,
        "status": {
          "vazamento": false,
          "obra": false,
          "qualidade": 53,
          "consumo_agua": 441
        }
      },
      {
        "id": 7,
        "nome": "Rua Orat\u00f3rio",
        "bairro": "Parque Orat\u00f3rio",
        "lat": -23.646185586712082,
        "lng": -46.52580015836169,
        "status": {
          "vazamento": true,
          "obra": false,
          "qualidade": 14,
          "consumo_agua": 419
        }
      },
      {
        "id": 8,
        "nome": "Rua Giovanni Battista Pirelli",
        "bairro": "Utinga",
        "lat": -23.66534763193009,
        "lng": -46.49779890428419,
        "status": {
          "vazamento": false,
          "obra": true,
          "qualidade": 73,
          "consumo_agua": 312
        }
      },
      {
        "id": 9,
        "nome": "Rua Catequese",
        "bairro": "Vila Assun\u00e7\u00e3o",
        "lat": -23.657100851514766,
        "lng": -46.53787033312041,
        "status": {
          "vazamento": false,
          "obra": false,
          "qualidade": 35,
          "consumo_agua": 486
        }
      },
      {
        "id": 10,
        "nome": "Rua Laura",
        "bairro": "Vila Palmares",
        "lat": -23.661725659351013,
        "lng": -46.534404319627804,
        "status": {
          "vazamento": true,
          "obra": true,
          "qualidade": 94,
          "consumo_agua": 180
        }
      },
      {
        "id": 11,
        "nome": "Rua Caminho do Pilar",
        "bairro": "Vila Camil\u00f3polis",
        "lat": -23.672958378723294,
        "lng": -46.54103709079151,
        "status": {
          "vazamento": true,
          "obra": false,
          "qualidade": 38,
          "consumo_agua": 423
        }
      },
      {
        "id": 12,
        "nome": "Rua das Hort\u00eancias",
        "bairro": "Parque das Na\u00e7\u00f5es",
        "lat": -23.683418730177046,
        "lng": -46.51671438894033,
        "status": {
          "vazamento": true,
          "obra": false,
          "qualidade": 96,
          "consumo_agua": 113
        }
      },
      {
        "id": 13,
        "nome": "Rua Alfredo Maluf",
        "bairro": "Vila Metal\u00fargica",
        "lat": -23.612510678764714,
        "lng": -46.574037775450144,
        "status": {
          "vazamento": false,
          "obra": true,
          "qualidade": 71,
          "consumo_agua": 285
        }
      },
      {
        "id": 14,
        "nome": "Rua Igarapava",
        "bairro": "Jardim Santo Andr\u00e9",
        "lat": -23.66696203168621,
        "lng": -46.55183836195601,
        "status": {
          "vazamento": false,
          "obra": true,
          "qualidade": 15,
          "consumo_agua": 379
        }
      },
      {
        "id": 15,
        "nome": "Rua das Mon\u00e7\u00f5es",
        "bairro": "Campestre",
        "lat": -23.65395317873637,
        "lng": -46.53731830428472,
        "status": {
          "vazamento": false,
          "obra": true,
          "qualidade": 9,
          "consumo_agua": 244
        }
      },
      {
        "id": 16,
        "nome": "Rua Ant\u00f4nio Cardoso",
        "bairro": "Vila Francisco Matarazzo",
        "lat": -23.661292931516286,
        "lng": -46.521383915261005,
        "status": {
          "vazamento": true,
          "obra": false,
          "qualidade": 5,
          "consumo_agua": 434
        }
      },
      {
        "id": 17,
        "nome": "Rua S\u00e3o Vicente",
        "bairro": "Vila Valpara\u00edso",
        "lat": -23.652706061390358,
        "lng": -46.53055757544888,
        "status": {
          "vazamento": true,
          "obra": false,
          "qualidade": 6,
          "consumo_agua": 311
        }
      },
      {
        "id": 18,
        "nome": "Rua Jos\u00e9 Bonif\u00e1cio",
        "bairro": "Vila Humait\u00e1",
        "lat": -23.6707556787248,
        "lng": -46.52849811962737,
        "status": {
          "vazamento": true,
          "obra": false,
          "qualidade": 35,
          "consumo_agua": 72
        }
      },
      {
        "id": 19,
        "nome": "Rua dos Vianas",
        "bairro": "S\u00edtio dos Vianas",
        "lat": -23.710710148329184,
        "lng": -46.514843023887686,
        "status": {
          "vazamento": false,
          "obra": false,
          "qualidade": 66,
          "consumo_agua": 436
        }
      },
      {
        "id": 20,
        "nome": "Rua dos Coqueiros",
        "bairro": "Jardim Las Vegas",
        "lat": -23.634991909814865,
        "lng": -46.54306661777767,
        "status": {
          "vazamento": true,
          "obra": false,
          "qualidade": 36,
          "consumo_agua": 268
        }
      }
    ]
  },
  {
    "timestamp": "2025-10-19T19:54:01.121424",
    "ruas": [
      {
        "id": 1,
        "nome": "Rua Coronel Oliveira Lima",
        "bairro": "Centro",
        "lat": -23.656440642397023,
        "lng": -46.52713433312033,
        "status": {
          "vazamento": false,
          "obra": true,
          "qualidade": 74,
          "consumo_agua": 500
        }
      },
      {
        "id": 2,
        "nome": "Avenida Dom Pedro II",
        "bairro": "Vila Bastos",
        "lat": -23.641177693500946,
        "lng": -46.54059526195661,
        "status": {
          "vazamento": true,
          "obra": false,
          "qualidade": 3,
          "consumo_agua": 66
        }
      },
      {
        "id": 3,
        "nome": "Rua das Figueiras",
        "bairro": "Jardim",
        "lat": -23.645144053822314,
        "lng": -46.5421068042849,
        "status": {
          "vazamento": true,
          "obra": false,
          "qualidade": 63,
          "consumo_agua": 321
        }
      },
      {
        "id": 4,
        "nome": "Avenida Portugal",
        "bairro": "Vila Alzira",
        "lat": -23.66306824488266,
        "lng": -46.53321313312019,
        "status": {
          "vazamento": true,
          "obra": true,
          "qualidade": 73,
          "consumo_agua": 415
        }
      },
      {
        "id": 5,
        "nome": "Rua Carij\u00f3s",
        "bairro": "Vila Linda",
        "lat": -23.686756303704435,
        "lng": -46.52195377544774,
        "status": {
          "vazamento": true,
          "obra": true,
          "qualidade": 7,
          "consumo_agua": 423
        }
      },
      {
        "id": 6,
        "nome": "Avenida Firestone",
        "bairro": "Vila Am\u00e9rica",
        "lat": -23.673820822957676,
        "lng": -46.51771880428405,
        "status": {
          "vazamento": true,
          "obra": false,
          "qualidade": 47,
          "consumo_agua": 429
        }
      },
      {
        "id": 7,
        "nome": "Rua Orat\u00f3rio",
        "bairro": "Parque Orat\u00f3rio",
        "lat": -23.646185586712082,
        "lng": -46.52580015836169,
        "status": {
          "vazamento": true,
          "obra": true,
          "qualidade": 87,
          "consumo_agua": 428
        }
      },
      {
        "id": 8,
        "nome": "Rua Giovanni Battista Pirelli",
        "bairro": "Utinga",
        "lat": -23.66534763193009,
        "lng": -46.49779890428419,
        "status": {
          "vazamento": true,
          "obra": false,
          "qualidade": 34,
          "consumo_agua": 309
        }
      },
      {
        "id": 9,
        "nome": "Rua Catequese",
        "bairro": "Vila Assun\u00e7\u00e3o",
        "lat": -23.657100851514766,
        "lng": -46.53787033312041,
        "status": {
          "vazamento": false,
          "obra": false,
          "qualidade": 35,
          "consumo_agua": 500
        }
      },
      {
        "id": 10,
        "nome": "Rua Laura",
        "bairro": "Vila Palmares",
        "lat": -23.661725659351013,
        "lng": -46.534404319627804,
        "status": {
          "vazamento": true,
          "obra": true,
          "qualidade": 8,
          "consumo_agua": 171
        }
      },
      {
        "id": 11,
        "nome": "Rua Caminho do Pilar",
        "bairro": "Vila Camil\u00f3polis",
        "lat": -23.672958378723294,
        "lng": -46.54103709079151,
        "status": {
          "vazamento": false,
          "obra": false,
          "qualidade": 33,
          "consumo_agua": 425
        }
      },
      {
        "id": 12,
        "nome": "Rua das Hort\u00eancias",
        "bairro": "Parque das Na\u00e7\u00f5es",
        "lat": -23.683418730177046,
        "lng": -46.51671438894033,
        "status": {
          "vazamento": true,
          "obra": false,
          "qualidade": 90,
          "consumo_agua": 131
        }
      },
      {
        "id": 13,
        "nome": "Rua Alfredo Maluf",
        "bairro": "Vila Metal\u00fargica",
        "lat": -23.612510678764714,
        "lng": -46.574037775450144,
        "status": {
          "vazamento": true,
          "obra": false,
          "qualidade": 97,
          "consumo_agua": 280
        }
      },
      {
        "id": 14,
        "nome": "Rua Igarapava",
        "bairro": "Jardim Santo Andr\u00e9",
        "lat": -23.66696203168621,
        "lng": -46.55183836195601,
        "status": {
          "vazamento": false,
          "obra": false,
          "qualidade": 55,
          "consumo_agua": 369
        }
      },
      {
        "id": 15,
        "nome": "Rua das Mon\u00e7\u00f5es",
        "bairro": "Campestre",
        "lat": -23.65395317873637,
        "lng": -46.53731830428472,
        "status": {
          "vazamento": false,
          "obra": true,
          "qualidade": 65,
          "consumo_agua": 255
        }
      },
      {
        "id": 16,
        "nome": "Rua Ant\u00f4nio Cardoso",
        "bairro": "Vila Francisco Matarazzo",
        "lat": -23.661292931516286,
        "lng": -46.521383915261005,
        "status": {
          "vazamento": true,
          "obra": true,
          "qualidade": 55,
          "consumo_agua": 438
        }
      },
      {
        "id": 17,
        "nome": "Rua S\u00e3o Vicente",
        "bairro": "Vila Valpara\u00edso",
        "lat": -23.652706061390358,
        "lng": -46.53055757544888,
        "status": {
          "vazamento": true,
          "obra": true,
          "qualidade": 77,
          "consumo_agua": 320
        }
      },
      {
        "id": 18,
        "nome": "Rua Jos\u00e9 Bonif\u00e1cio",
        "bairro": "Vila Humait\u00e1",
        "lat": -23.6707556787248,
        "lng": -46.52849811962737,
        "status": {
          "vazamento": true,
          "obra": true,
          "qualidade": 79,
          "consumo_agua": 56
        }
      },
      {
        "id": 19,
        "nome": "Rua dos Vianas",
        "bairro": "S\u00edtio dos Vianas",
        "lat": -23.710710148329184,
        "lng": -46.514843023887686,
        "status": {
          "vazamento": false,
          "obra": true,
          "qualidade": 46,
          "consumo_agua": 435
        }
      },
      {
        "id": 20,
        "nome": "Rua dos Coqueiros",
        "bairro": "Jardim Las Vegas",
        "lat": -23.634991909814865,
        "lng": -46.54306661777767,
        "status": {
          "vazamento": true,
          "obra": true,
          "qualidade": 65,
          "consumo_agua": 285
        }
      }
    ]
  },
  {
    "timestamp": "2025-10-19T19:54:02.580445",
    "ruas": [
      {
        "id": 1,
        "nome": "Rua Coronel Oliveira Lima",
        "bairro": "Centro",
        "lat": -23.656440642397023,
        "lng": -46.52713433312033,
        "status": {
          "vazamento": true,
          "obra": true,
          "qualidade": 24,
          "consumo_agua": 484
        }
      },
      {
        "id": 2,
        "nome": "Avenida Dom Pedro II",
        "bairro": "Vila Bastos",
        "lat": -23.641177693500946,
        "lng": -46.54059526195661,
        "status": {
          "vazamento": false,
          "obra": true,
          "qualidade": 43,
          "consumo_agua": 73
        }
      },
      {
        "id": 3,
        "nome": "Rua das Figueiras",
        "bairro": "Jardim",
        "lat": -23.645144053822314,
        "lng": -46.5421068042849,
        "status": {
          "vazamento": true,
          "obra": true,
          "qualidade": 17,
          "consumo_agua": 328
        }
      },
      {
        "id": 4,
        "nome": "Avenida Portugal",
        "bairro": "Vila Alzira",
        "lat": -23.66306824488266,
        "lng": -46.53321313312019,
        "status": {
          "vazamento": false,
          "obra": false,
          "qualidade": 56,
          "consumo_agua": 400
        }
      },
      {
        "id": 5,
        "nome": "Rua Carij\u00f3s",
        "bairro": "Vila Linda",
        "lat": -23.686756303704435,
        "lng": -46.52195377544774,
        "status": {
          "vazamento": true,
          "obra": true,
          "qualidade": 8,
          "consumo_agua": 432
        }
      },
      {
        "id": 6,
        "nome": "Avenida Firestone",
        "bairro": "Vila Am\u00e9rica",
        "lat": -23.673820822957676,
        "lng": -46.51771880428405,
        "status": {
          "vazamento": true,
          "obra": true,
          "qualidade": 83,
          "consumo_agua": 443
        }
      },
      {
        "id": 7,
        "nome": "Rua Orat\u00f3rio",
        "bairro": "Parque Orat\u00f3rio",
        "lat": -23.646185586712082,
        "lng": -46.52580015836169,
        "status": {
          "vazamento": false,
          "obra": true,
          "qualidade": 99,
          "consumo_agua": 439
        }
      },
      {
        "id": 8,
        "nome": "Rua Giovanni Battista Pirelli",
        "bairro": "Utinga",
        "lat": -23.66534763193009,
        "lng": -46.49779890428419,
        "status": {
          "vazamento": false,
          "obra": false,
          "qualidade": 50,
          "consumo_agua": 311
        }
      },
      {
        "id": 9,
        "nome": "Rua Catequese",
        "bairro": "Vila Assun\u00e7\u00e3o",
        "lat": -23.657100851514766,
        "lng": -46.53787033312041,
        "status": {
          "vazamento": false,
          "obra": true,
          "qualidade": 67,
          "consumo_agua": 500
        }
      },
      {
        "id": 10,
        "nome": "Rua Laura",
        "bairro": "Vila Palmares",
        "lat": -23.661725659351013,
        "lng": -46.534404319627804,
        "status": {
          "vazamento": false,
          "obra": true,
          "qualidade": 89,
          "consumo_agua": 166
        }
      },
      {
        "id": 11,
        "nome": "Rua Caminho do Pilar",
        "bairro": "Vila Camil\u00f3polis",
        "lat": -23.672958378723294,
        "lng": -46.54103709079151,
        "status": {
          "vazamento": true,
          "obra": true,
          "qualidade": 99,
          "consumo_agua": 442
        }
      },
      {
        "id": 12,
        "nome": "Rua das Hort\u00eancias",
        "bairro": "Parque das Na\u00e7\u00f5es",
        "lat": -23.683418730177046,
        "lng": -46.51671438894033,
        "status": {
          "vazamento": true,
          "obra": false,
          "qualidade": 96,
          "consumo_agua": 117
        }
      },
      {
        "id": 13,
        "nome": "Rua Alfredo Maluf",
        "bairro": "Vila Metal\u00fargica",
        "lat": -23.612510678764714,
        "lng": -46.574037775450144,
        "status": {
          "vazamento": false,
          "obra": false,
          "qualidade": 0,
          "consumo_agua": 271
        }
      },
      {
        "id": 14,
        "nome": "Rua Igarapava",
        "bairro": "Jardim Santo Andr\u00e9",
        "lat": -23.66696203168621,
        "lng": -46.55183836195601,
        "status": {
          "vazamento": false,
          "obra": false,
          "qualidade": 72,
          "consumo_agua": 363
        }
      },
      {
        "id": 15,
        "nome": "Rua das Mon\u00e7\u00f5es",
        "bairro": "Campestre",
        "lat": -23.65395317873637,
        "lng": -46.53731830428472,
        "status": {
          "vazamento": true,
          "obra": true,
          "qualidade": 61,
          "consumo_agua": 273
        }
      },
      {
        "id": 16,
        "nome": "Rua Ant\u00f4nio Cardoso",
        "bairro": "Vila Francisco Matarazzo",
        "lat": -23.661292931516286,
        "lng": -46.521383915261005,
        "status": {
          "vazamento": false,
          "obra": true,
          "qualidade": 61,
          "consumo_agua": 431
        }
      },
      {
        "id": 17,
        "nome": "Rua S\u00e3o Vicente",
        "bairro": "Vila Valpara\u00edso",
        "lat": -23.652706061390358,
        "lng": -46.53055757544888,
        "status": {
          "vazamento": true,
          "obra": false,
          "qualidade": 44,
          "consumo_agua": 337
        }
      },
      {
        "id": 18,
        "nome": "Rua Jos\u00e9 Bonif\u00e1cio",
        "bairro": "Vila Humait\u00e1",
        "lat": -23.6707556787248,
        "lng": -46.52849811962737,
        "status": {
          "vazamento": false,
          "obra": true,
          "qualidade": 19,
          "consumo_agua": 64
        }
      },
      {
        "id": 19,
        "nome": "Rua dos Vianas",
        "bairro": "S\u00edtio dos Vianas",
        "lat": -23.710710148329184,
        "lng": -46.514843023887686,
        "status": {
          "vazamento": false,
          "obra": false,
          "qualidade": 61,
          "consumo_agua": 418
        }
      },
      {
        "id": 20,
        "nome": "Rua dos Coqueiros",
        "bairro": "Jardim Las Vegas",
        "lat": -23.634991909814865,
        "lng": -46.54306661777767,
        "status": {
          "vazamento": true,
          "obra": true,
          "qualidade": 49,
          "consumo_agua": 283
        }
      }
    ]
  },
  {
    "timestamp": "2025-10-19T19:55:01.208235",
    "ruas": [
      {
        "id": 1,
        "nome": "Rua Coronel Oliveira Lima",
        "bairro": "Centro",
        "lat": -23.656440642397023,
        "lng": -46.52713433312033,
        "status": {
          "vazamento": false,
          "obra": true,
          "qualidade": 68,
          "consumo_agua": 493
        }
      },
      {
        "id": 2,
        "nome": "Avenida Dom Pedro II",
        "bairro": "Vila Bastos",
        "lat": -23.641177693500946,
        "lng": -46.54059526195661,
        "status": {
          "vazamento": false,
          "obra": false,
          "qualidade": 30,
          "consumo_agua": 71
        }
      },
      {
        "id": 3,
        "nome": "Rua das Figueiras",
        "bairro": "Jardim",
        "lat": -23.645144053822314,
        "lng": -46.5421068042849,
        "status": {
          "vazamento": true,
          "obra": true,
          "qualidade": 69,
          "consumo_agua": 320
        }
      },
      {
        "id": 4,
        "nome": "Avenida Portugal",
        "bairro": "Vila Alzira",
        "lat": -23.66306824488266,
        "lng": -46.53321313312019,
        "status": {
          "vazamento": true,
          "obra": true,
          "qualidade": 34,
          "consumo_agua": 385
        }
      },
      {
        "id": 5,
        "nome": "Rua Carij\u00f3s",
        "bairro": "Vila Linda",
        "lat": -23.686756303704435,
        "lng": -46.52195377544774,
        "status": {
          "vazamento": true,
          "obra": true,
          "qualidade": 68,
          "consumo_agua": 443
        }
      },
      {
        "id": 6,
        "nome": "Avenida Firestone",
        "bairro": "Vila Am\u00e9rica",
        "lat": -23.673820822957676,
        "lng": -46.51771880428405,
        "status": {
          "vazamento": false,
          "obra": true,
          "qualidade": 44,
          "consumo_agua": 453
        }
      },
      {
        "id": 7,
        "nome": "Rua Orat\u00f3rio",
        "bairro": "Parque Orat\u00f3rio",
        "lat": -23.646185586712082,
        "lng": -46.52580015836169,
        "status": {
          "vazamento": true,
          "obra": true,
          "qualidade": 18,
          "consumo_agua": 424
        }
      },
      {
        "id": 8,
        "nome": "Rua Giovanni Battista Pirelli",
        "bairro": "Utinga",
        "lat": -23.66534763193009,
        "lng": -46.49779890428419,
        "status": {
          "vazamento": true,
          "obra": false,
          "qualidade": 98,
          "consumo_agua": 295
        }
      },
      {
        "id": 9,
        "nome": "Rua Catequese",
        "bairro": "Vila Assun\u00e7\u00e3o",
        "lat": -23.657100851514766,
        "lng": -46.53787033312041,
        "status": {
          "vazamento": true,
          "obra": false,
          "qualidade": 1,
          "consumo_agua": 500
        }
      },
      {
        "id": 10,
        "nome": "Rua Laura",
        "bairro": "Vila Palmares",
        "lat": -23.661725659351013,
        "lng": -46.534404319627804,
        "status": {
          "vazamento": false,
          "obra": true,
          "qualidade": 45,
          "consumo_agua": 162
        }
      },
      {
        "id": 11,
        "nome": "Rua Caminho do Pilar",
        "bairro": "Vila Camil\u00f3polis",
        "lat": -23.672958378723294,
        "lng": -46.54103709079151,
        "status": {
          "vazamento": false,
          "obra": false,
          "qualidade": 76,
          "consumo_agua": 459
        }
      },
      {
        "id": 12,
        "nome": "Rua das Hort\u00eancias",
        "bairro": "Parque das Na\u00e7\u00f5es",
        "lat": -23.683418730177046,
        "lng": -46.51671438894033,
        "status": {
          "vazamento": false,
          "obra": false,
          "qualidade": 94,
          "consumo_agua": 105
        }
      },
      {
        "id": 13,
        "nome": "Rua Alfredo Maluf",
        "bairro": "Vila Metal\u00fargica",
        "lat": -23.612510678764714,
        "lng": -46.574037775450144,
        "status": {
          "vazamento": true,
          "obra": true,
          "qualidade": 97,
          "consumo_agua": 252
        }
      },
      {
        "id": 14,
        "nome": "Rua Igarapava",
        "bairro": "Jardim Santo Andr\u00e9",
        "lat": -23.66696203168621,
        "lng": -46.55183836195601,
        "status": {
          "vazamento": true,
          "obra": true,
          "qualidade": 64,
          "consumo_agua": 348
        }
      },
      {
        "id": 15,
        "nome": "Rua das Mon\u00e7\u00f5es",
        "bairro": "Campestre",
        "lat": -23.65395317873637,
        "lng": -46.53731830428472,
        "status": {
          "vazamento": true,
          "obra": false,
          "qualidade": 98,
          "consumo_agua": 274
        }
      },
      {
        "id": 16,
        "nome": "Rua Ant\u00f4nio Cardoso",
        "bairro": "Vila Francisco Matarazzo",
        "lat": -23.661292931516286,
        "lng": -46.521383915261005,
        "status": {
          "vazamento": false,
          "obra": true,
          "qualidade": 45,
          "consumo_agua": 434
        }
      },
      {
        "id": 17,
        "nome": "Rua S\u00e3o Vicente",
        "bairro": "Vila Valpara\u00edso",
        "lat": -23.652706061390358,
        "lng": -46.53055757544888,
        "status": {
          "vazamento": true,
          "obra": true,
          "qualidade": 45,
          "consumo_agua": 332
        }
      },
      {
        "id": 18,
        "nome": "Rua Jos\u00e9 Bonif\u00e1cio",
        "bairro": "Vila Humait\u00e1",
        "lat": -23.6707556787248,
        "lng": -46.52849811962737,
        "status": {
          "vazamento": true,
          "obra": false,
          "qualidade": 1,
          "consumo_agua": 51
        }
      },
      {
        "id": 19,
        "nome": "Rua dos Vianas",
        "bairro": "S\u00edtio dos Vianas",
        "lat": -23.710710148329184,
        "lng": -46.514843023887686,
        "status": {
          "vazamento": true,
          "obra": false,
          "qualidade": 40,
          "consumo_agua": 401
        }
      },
      {
        "id": 20,
        "nome": "Rua dos Coqueiros",
        "bairro": "Jardim Las Vegas",
        "lat": -23.634991909814865,
        "lng": -46.54306661777767,
        "status": {
          "vazamento": false,
          "obra": true,
          "qualidade": 66,
          "consumo_agua": 268
        }
      }
    ]
  },
  {
    "timestamp": "2025-10-19T19:55:02.719058",
    "ruas": [
      {
        "id": 1,
        "nome": "Rua Coronel Oliveira Lima",
        "bairro": "Centro",
        "lat": -23.656440642397023,
        "lng": -46.52713433312033,
        "status": {
          "vazamento": false,
          "obra": false,
          "qualidade": 13,
          "consumo_agua": 478
        }
      },
      {
        "id": 2,
        "nome": "Avenida Dom Pedro II",
        "bairro": "Vila Bastos",
        "lat": -23.641177693500946,
        "lng": -46.54059526195661,
        "status": {
          "vazamento": false,
          "obra": false,
          "qualidade": 40,
          "consumo_agua": 83
        }
      },
      {
        "id": 3,
        "nome": "Rua das Figueiras",
        "bairro": "Jardim",
        "lat": -23.645144053822314,
        "lng": -46.5421068042849,
        "status": {
          "vazamento": true,
          "obra": false,
          "qualidade": 18,
          "consumo_agua": 305
        }
      },
      {
        "id": 4,
        "nome": "Avenida Portugal",
        "bairro": "Vila Alzira",
        "lat": -23.66306824488266,
        "lng": -46.53321313312019,
        "status": {
          "vazamento": false,
          "obra": false,
          "qualidade": 70,
          "consumo_agua": 380
        }
      },
      {
        "id": 5,
        "nome": "Rua Carij\u00f3s",
        "bairro": "Vila Linda",
        "lat": -23.686756303704435,
        "lng": -46.52195377544774,
        "status": {
          "vazamento": true,
          "obra": true,
          "qualidade": 68,
          "consumo_agua": 450
        }
      },
      {
        "id": 6,
        "nome": "Avenida Firestone",
        "bairro": "Vila Am\u00e9rica",
        "lat": -23.673820822957676,
        "lng": -46.51771880428405,
        "status": {
          "vazamento": true,
          "obra": false,
          "qualidade": 81,
          "consumo_agua": 442
        }
      },
      {
        "id": 7,
        "nome": "Rua Orat\u00f3rio",
        "bairro": "Parque Orat\u00f3rio",
        "lat": -23.646185586712082,
        "lng": -46.52580015836169,
        "status": {
          "vazamento": false,
          "obra": false,
          "qualidade": 11,
          "consumo_agua": 432
        }
      },
      {
        "id": 8,
        "nome": "Rua Giovanni Battista Pirelli",
        "bairro": "Utinga",
        "lat": -23.66534763193009,
        "lng": -46.49779890428419,
        "status": {
          "vazamento": false,
          "obra": true,
          "qualidade": 78,
          "consumo_agua": 302
        }
      },
      {
        "id": 9,
        "nome": "Rua Catequese",
        "bairro": "Vila Assun\u00e7\u00e3o",
        "lat": -23.657100851514766,
        "lng": -46.53787033312041,
        "status": {
          "vazamento": false,
          "obra": true,
          "qualidade": 77,
          "consumo_agua": 494
        }
      },
      {
        "id": 10,
        "nome": "Rua Laura",
        "bairro": "Vila Palmares",
        "lat": -23.661725659351013,
        "lng": -46.534404319627804,
        "status": {
          "vazamento": true,
          "obra": false,
          "qualidade": 81,
          "consumo_agua": 151
        }
      },
      {
        "id": 11,
        "nome": "Rua Caminho do Pilar",
        "bairro": "Vila Camil\u00f3polis",
        "lat": -23.672958378723294,
        "lng": -46.54103709079151,
        "status": {
          "vazamento": false,
          "obra": true,
          "qualidade": 7,
          "consumo_agua": 451
        }
      },
      {
        "id": 12,
        "nome": "Rua das Hort\u00eancias",
        "bairro": "Parque das Na\u00e7\u00f5es",
        "lat": -23.683418730177046,
        "lng": -46.51671438894033,
        "status": {
          "vazamento": false,
          "obra": false,
          "qualidade": 4,
          "consumo_agua": 108
        }
      },
      {
        "id": 13,
        "nome": "Rua Alfredo Maluf",
        "bairro": "Vila Metal\u00fargica",
        "lat": -23.612510678764714,
        "lng": -46.574037775450144,
        "status": {
          "vazamento": true,
          "obra": false,
          "qualidade": 40,
          "consumo_agua": 269
        }
      },
      {
        "id": 14,
        "nome": "Rua Igarapava",
        "bairro": "Jardim Santo Andr\u00e9",
        "lat": -23.66696203168621,
        "lng": -46.55183836195601,
        "status": {
          "vazamento": false,
          "obra": true,
          "qualidade": 31,
          "consumo_agua": 360
        }
      },
      {
        "id": 15,
        "nome": "Rua das Mon\u00e7\u00f5es",
        "bairro": "Campestre",
        "lat": -23.65395317873637,
        "lng": -46.53731830428472,
        "status": {
          "vazamento": true,
          "obra": false,
          "qualidade": 91,
          "consumo_agua": 290
        }
      },
      {
        "id": 16,
        "nome": "Rua Ant\u00f4nio Cardoso",
        "bairro": "Vila Francisco Matarazzo",
        "lat": -23.661292931516286,
        "lng": -46.521383915261005,
        "status": {
          "vazamento": true,
          "obra": false,
          "qualidade": 46,
          "consumo_agua": 420
        }
      },
      {
        "id": 17,
        "nome": "Rua S\u00e3o Vicente",
        "bairro": "Vila Valpara\u00edso",
        "lat": -23.652706061390358,
        "lng": -46.53055757544888,
        "status": {
          "vazamento": true,
          "obra": false,
          "qualidade": 83,
          "consumo_agua": 349
        }
      },
      {
        "id": 18,
        "nome": "Rua Jos\u00e9 Bonif\u00e1cio",
        "bairro": "Vila Humait\u00e1",
        "lat": -23.6707556787248,
        "lng": -46.52849811962737,
        "status": {
          "vazamento": true,
          "obra": false,
          "qualidade": 54,
          "consumo_agua": 50
        }
      },
      {
        "id": 19,
        "nome": "Rua dos Vianas",
        "bairro": "S\u00edtio dos Vianas",
        "lat": -23.710710148329184,
        "lng": -46.514843023887686,
        "status": {
          "vazamento": true,
          "obra": false,
          "qualidade": 65,
          "consumo_agua": 407
        }
      },
      {
        "id": 20,
        "nome": "Rua dos Coqueiros",
        "bairro": "Jardim Las Vegas",
        "lat": -23.634991909814865,
        "lng": -46.54306661777767,
        "status": {
          "vazamento": true,
          "obra": false,
          "qualidade": 69,
          "consumo_agua": 258
        }
      }
    ]
  },
  {
    "timestamp": "2025-10-19T19:56:01.305915",
    "ruas": [
      {
        "id": 1,
        "nome": "Rua Coronel Oliveira Lima",
        "bairro": "Centro",
        "lat": -23.656440642397023,
        "lng": -46.52713433312033,
        "status": {
          "vazamento": false,
          "obra": false,
          "qualidade": 46,
          "consumo_agua": 479
        }
      },
      {
        "id": 2,
        "nome": "Avenida Dom Pedro II",
        "bairro": "Vila Bastos",
        "lat": -23.641177693500946,
        "lng": -46.54059526195661,
        "status": {
          "vazamento": true,
          "obra": false,
          "qualidade": 84,
          "consumo_agua": 77
        }
      },
      {
        "id": 3,
        "nome": "Rua das Figueiras",
        "bairro": "Jardim",
        "lat": -23.645144053822314,
        "lng": -46.5421068042849,
        "status": {
          "vazamento": true,
          "obra": true,
          "qualidade": 95,
          "consumo_agua": 324
        }
      },
      {
        "id": 4,
        "nome": "Avenida Portugal",
        "bairro": "Vila Alzira",
        "lat": -23.66306824488266,
        "lng": -46.53321313312019,
        "status": {
          "vazamento": true,
          "obra": true,
          "qualidade": 62,
          "consumo_agua": 383
        }
      },
      {
        "id": 5,
        "nome": "Rua Carij\u00f3s",
        "bairro": "Vila Linda",
        "lat": -23.686756303704435,
        "lng": -46.52195377544774,
        "status": {
          "vazamento": false,
          "obra": false,
          "qualidade": 82,
          "consumo_agua": 464
        }
      },
      {
        "id": 6,
        "nome": "Avenida Firestone",
        "bairro": "Vila Am\u00e9rica",
        "lat": -23.673820822957676,
        "lng": -46.51771880428405,
        "status": {
          "vazamento": true,
          "obra": false,
          "qualidade": 13,
          "consumo_agua": 423
        }
      },
      {
        "id": 7,
        "nome": "Rua Orat\u00f3rio",
        "bairro": "Parque Orat\u00f3rio",
        "lat": -23.646185586712082,
        "lng": -46.52580015836169,
        "status": {
          "vazamento": true,
          "obra": true,
          "qualidade": 76,
          "consumo_agua": 452
        }
      },
      {
        "id": 8,
        "nome": "Rua Giovanni Battista Pirelli",
        "bairro": "Utinga",
        "lat": -23.66534763193009,
        "lng": -46.49779890428419,
        "status": {
          "vazamento": false,
          "obra": false,
          "qualidade": 14,
          "consumo_agua": 290
        }
      },
      {
        "id": 9,
        "nome": "Rua Catequese",
        "bairro": "Vila Assun\u00e7\u00e3o",
        "lat": -23.657100851514766,
        "lng": -46.53787033312041,
        "status": {
          "vazamento": true,
          "obra": false,
          "qualidade": 20,
          "consumo_agua": 500
        }
      },
      {
        "id": 10,
        "nome": "Rua Laura",
        "bairro": "Vila Palmares",
        "lat": -23.661725659351013,
        "lng": -46.534404319627804,
        "status": {
          "vazamento": false,
          "obra": false,
          "qualidade": 6,
          "consumo_agua": 153
        }
      },
      {
        "id": 11,
        "nome": "Rua Caminho do Pilar",
        "bairro": "Vila Camil\u00f3polis",
        "lat": -23.672958378723294,
        "lng": -46.54103709079151,
        "status": {
          "vazamento": true,
          "obra": false,
          "qualidade": 23,
          "consumo_agua": 461
        }
      },
      {
        "id": 12,
        "nome": "Rua das Hort\u00eancias",
        "bairro": "Parque das Na\u00e7\u00f5es",
        "lat": -23.683418730177046,
        "lng": -46.51671438894033,
        "status": {
          "vazamento": true,
          "obra": false,
          "qualidade": 22,
          "consumo_agua": 100
        }
      },
      {
        "id": 13,
        "nome": "Rua Alfredo Maluf",
        "bairro": "Vila Metal\u00fargica",
        "lat": -23.612510678764714,
        "lng": -46.574037775450144,
        "status": {
          "vazamento": false,
          "obra": false,
          "qualidade": 46,
          "consumo_agua": 282
        }
      },