{
  "1": {
    "id": 1,
    "nome": "Rua Coronel Oliveira Lima",
    "bairro": "Centro",
    "lat": -23.656440642397023,
    "lng": -46.52713433312033,
    "status": {
      "vazamento": false,
      "obra": true,
      "qualidade": 54,
      "consumo_agua": 469
    }
  },
  "2": {
    "id": 2,
    "nome": "Avenida Dom Pedro II",
    "bairro": "Vila Bastos",
    "lat": -23.641177693500946,
    "lng": -46.54059526195661,
    "status": {
      "vazamento": true,
      "obra": false,
      "qualidade": 53,
      "consumo_agua": 155
    }
  },
  "3": {
    "id": 3,
    "nome": "Rua das Figueiras",
    "bairro": "Jardim",
    "lat": -23.645144053822314,
    "lng": -46.5421068042849,
    "status": {
      "vazamento": false,
      "obra": true,
      "qualidade": 32,
      "consumo_agua": 96
    }
  },
  "4": {
    "id": 4,
    "nome": "Avenida Portugal",
    "bairro": "Vila Alzira",
    "lat": -23.66306824488266,
    "lng": -46.53321313312019,
    "status": {
      "vazamento": false,
      "obra": true,
      "qualidade": 28,
      "consumo_agua": 479
    }
  },
  "5": {
    "id": 5,
    "nome": "Rua Carij\u00f3s",
    "bairro": "Vila Linda",
    "lat": -23.686756303704435,
    "lng": -46.52195377544774,
    "status": {
      "vazamento": false,
      "obra": true,
      "qualidade": 42,
      "consumo_agua": 430
    }
  },
  "6": {
    "id": 6,
    "nome": "Avenida Firestone",
    "bairro": "Vila Am\u00e9rica",
    "lat": -23.673820822957676,
    "lng": -46.51771880428405,
    "status": {
      "vazamento": false,
      "obra": false,
      "qualidade": 82,
      "consumo_agua": 500
    }
  },
  "7": {
    "id": 7,
    "nome": "Rua Orat\u00f3rio",
    "bairro": "Parque Orat\u00f3rio",
    "lat": -23.646185586712082,
    "lng": -46.52580015836169,
    "status": {
      "vazamento": true,
      "obra": false,
      "qualidade": 40,
      "consumo_agua": 294
    }
  },
  "8": {
    "id": 8,
    "nome": "Rua Giovanni Battista Pirelli",
    "bairro": "Utinga",
    "lat": -23.66534763193009,
    "lng": -46.49779890428419,
    "status": {
      "vazamento": true,
      "obra": false,
      "qualidade": 80,
      "consumo_agua": 255
    }
  },
  "9": {
    "id": 9,
    "nome": "Rua Catequese",
    "bairro": "Vila Assun\u00e7\u00e3o",
    "lat": -23.657100851514766,
    "lng": -46.53787033312041,
    "status": {
      "vazamento": false,
      "obra": false,
      "qualidade": 84,
      "consumo_agua": 348
    }
  },
  "10": {
    "id": 10,
    "nome": "Rua Laura",
    "bairro": "Vila Palmares",
    "lat": -23.661725659351013,
    "lng": -46.534404319627804,
    "status": {
      "vazamento": true,
      "obra": false,
      "qualidade": 49,
      "consumo_agua": 142
    }
  },
  "11": {
    "id": 11,
    "nome": "Rua Caminho do Pilar",
    "bairro": "Vila Camil\u00f3polis",
    "lat": -23.672958378723294,
    "lng": -46.54103709079151,
    "status": {
      "vazamento": true,
      "obra": false,
      "qualidade": 74,
      "consumo_agua": 447
    }
  },
  "12": {
    "id": 12,
    "nome": "Rua das Hort\u00eancias",
    "bairro": "Parque das Na\u00e7\u00f5es",
    "lat": -23.683418730177046,
    "lng": -46.51671438894033,
    "status": {
      "vazamento": true,
      "obra": true,
      "qualidade": 16,
      "consumo_agua": 191
    }
  },
  "13": {
    "id": 13,
    "nome": "Rua Alfredo Maluf",
    "bairro": "Vila Metal\u00fargica",
    "lat": -23.612510678764714,
    "lng": -46.574037775450144,
    "status": {
      "vazamento": false,
      "obra": false,
      "qualidade": 85,
      "consumo_agua": 126
    }
  },
  "14": {
    "id": 14,
    "nome": "Rua Igarapava",
    "bairro": "Jardim Santo Andr\u00e9",
    "lat": -23.66696203168621,
    "lng": -46.55183836195601,
    "status": {
      "vazamento": true,
      "obra": false,
      "qualidade": 65,
      "consumo_agua": 153
    }
  },
  "15": {
    "id": 15,
    "nome": "Rua das Mon\u00e7\u00f5es",
    "bairro": "Campestre",
    "lat": -23.65395317873637,
    "lng": -46.53731830428472,
    "status": {
      "vazamento": false,
      "obra": false,
      "qualidade": 90,
      "consumo_agua": 131
    }
  },
  "16": {
    "id": 16,
    "nome": "Rua Ant\u00f4nio Cardoso",
    "bairro": "Vila Francisco Matarazzo",
    "lat": -23.661292931516286,
    "lng": -46.521383915261005,
    "status": {
      "vazamento": true,
      "obra": true,
      "qualidade": 72,
      "consumo_agua": 366
    }
  },
  "17": {
    "id": 17,
    "nome": "Rua S\u00e3o Vicente",
    "bairro": "Vila Valpara\u00edso",
    "lat": -23.652706061390358,
    "lng": -46.53055757544888,
    "status": {
      "vazamento": true,
      "obra": false,
      "qualidade": 55,
      "consumo_agua": 265
    }
  },
  "18": {
    "id": 18,
    "nome": "Rua Jos\u00e9 Bonif\u00e1cio",
    "bairro": "Vila Humait\u00e1",
    "lat": -23.6707556787248,
    "lng": -46.52849811962737,
    "status": {
      "vazamento": true,
      "obra": true,
      "qualidade": 4,
      "consumo_agua": 80
    }
  },
  "19": {
    "id": 19,
    "nome": "Rua dos Vianas",
    "bairro": "S\u00edtio dos Vianas",
    "lat": -23.710710148329184,
    "lng": -46.514843023887686,
    "status": {
      "vazamento": true,
      "obra": false,
      "qualidade": 5,
      "consumo_agua": 285
    }
  },
  "20": {
    "id": 20,
    "nome": "Rua dos Coqueiros",
    "bairro": "Jardim Las Vegas",
    "lat": -23.634991909814865,
    "lng": -46.54306661777767,
    "status": {
      "vazamento": true,
      "obra": true,
      "qualidade": 81,
      "consumo_agua": 137
    }
  }
}